,seconds of week [s],ECEF_vel_x,ECEF_vel_y,ECEF_vel_z,IMU_ATTI(0):velN[meters/Sec],IMU_ATTI(0):velE[meters/Sec],IMU_ATTI(0):velD[meters/Sec],IMU_ATTI(0):velH[meters/Sec],IMU_ATTI(0):velComposite[meters/Sec],GPS(0):Lat[degrees],GPS(0):Long[degrees],Normalized barometer:Raw[meters]
0,594595.0,-0.006195635534822941,0.0026570232585072517,0.025776894763112068,0.019771658,-0.008948026,-0.010131832,0.021702203,0.023950776,37.4265419,-122.1757774,1.440185999999997
1,594595.2,-0.0017545861192047596,0.008507419377565384,0.01965046301484108,0.01935321,-0.008304467,-0.000598,0.0210597,0.021068193,37.4265419,-122.1757775,1.2583500000000072
2,594595.4,-0.001945258118212223,0.010777957737445831,0.01840097876265645,0.019467225,-0.009674955,0.001606921,0.02173885,0.021798162000000003,37.426542,-122.1757775,1.9993300000000005
3,594595.6,-0.0022056670859456062,0.008481649681925774,0.02050468884408474,0.019872338,-0.008672548,-0.001325229,0.021682317000000003,0.021722778999999998,37.426542100000006,-122.1757775,1.519843999999992
4,594595.8,-0.000875730998814106,0.008899479173123837,0.01884780405089259,0.019201897,-0.007769365,0.000525,0.020714147,0.020720802,37.426542100000006,-122.17577759999999,1.1545799999999957
5,594596.0,-0.003314569592475891,0.00872225221246481,0.019712939392775297,0.019008473,-0.00973927,-0.001151265,0.021358263,0.021389268,37.4265422,-122.17577759999999,1.4601059999999961
6,594596.2,0.0046328897587955,0.02062493097037077,0.009257319383323193,0.019400198,-0.009350757,0.016564588999999998,0.021536117,0.027169652000000002,37.4265422,-122.17577759999999,1.227950000000007
7,594596.4,-0.006225137505680323,-0.0009142709895968437,0.025663110427558422,0.017834654,-0.007071224,-0.012475672,0.019185336,0.022884917999999997,37.4265422,-122.17577759999999,2.1088400000000007
8,594596.6,0.006206868682056665,0.015486020594835281,0.011679974384605885,0.019190013,-0.005281956,0.012303633000000001,0.01990366,0.023399467,37.426542100000006,-122.17577759999999,1.2798299999999898
9,594596.8,0.005181069485843182,0.00946180522441864,0.011285352054983377,0.015445752,-0.002942218,0.008060366999999999,0.015723482,0.01766911,37.426542,-122.1757777,1.8426439999999928
10,594597.0,0.0017080707475543022,0.008518338203430176,0.0137092974036932,0.015761383,-0.005379421,0.004484366,0.016654109,0.017247286,37.426542,-122.17577759999999,1.6367000000000047
11,594597.2,-0.00036966847255825996,0.005585807375609875,0.018393814098089933,0.017300574,-0.005576439,-0.001212432,0.018177088,0.01821748,37.426541799999995,-122.1757775,2.004559999999998
12,594597.4,-0.0015314803458750248,0.004889072850346565,0.015816950239241123,0.014519795,-0.006188796999999999,-0.000606,0.015783715,0.015795363,37.4265417,-122.17577730000001,1.4800199999999961
13,594597.6,0.00015232572332024574,0.005353499203920364,0.014393451157957315,0.014173187,-0.005010905,0.001283359,0.015032911000000001,0.015087592,37.4265416,-122.1757774,1.019369999999995
14,594597.8,-0.004413892515003681,0.0006073275581002235,0.020524211693555117,0.015122584,-0.006348426999999999,-0.00756381,0.016401069,0.018061182,37.4265414,-122.17577720000001,1.581153999999998
15,594598.0,-0.002287899609655142,-0.0005763489753007889,0.01871064491569996,0.013761523000000001,-0.003918618,-0.006358198000000001,0.014308567,0.015657643,37.4265413,-122.17577720000001,1.4171300000000002
16,594598.2,0.0008438536897301674,0.005733088590204716,0.014227360486984253,0.014460354,-0.00462772,0.0019318879999999999,0.015182807,0.015305222,37.4265412,-122.17577709999999,1.6052600000000012
17,594598.4,-0.00329336104914546,0.000911099836230278,0.018209700472652912,0.013803458000000001,-0.005561751,-0.005479133000000001,0.014881819,0.015858417,37.4265411,-122.175777,1.8504999999999967
18,594598.6,-0.0005909656174480915,0.002734077163040638,0.012500109616667032,0.011081621000000002,-0.004245156,0.000359,0.011866916000000002,0.011872333999999998,37.426541,-122.175777,1.6089300000000009
19,594598.8,-0.0031154719181358814,0.0016002180054783821,0.012335548643022776,0.009550658,-0.005778149000000001,-0.001370721,0.01116253,0.011246375,37.4265409,-122.175777,1.5287549999999896
20,594599.0,-0.0057730660773813725,-0.0007461858913302422,0.013842796441167593,0.008680521,-0.00677809,-0.004987791,0.011013353,0.012090161,37.4265408,-122.1757769,1.6251760000000104
21,594599.2,-0.005257110111415386,-0.00043746642768383026,0.012984079774469137,0.008324374,-0.006505773,-0.0040402070000000005,0.010565048999999998,0.011311213,37.4265408,-122.1757769,1.0429900000000032
22,594599.4,0.002924359403550625,-0.007504063658416271,0.021079215686768293,0.013765685,0.004182263,-0.010250077,0.014386988,0.017664922,37.4265408,-122.1757769,0.8359999999999985
23,594599.6,-0.006669801659882069,0.011204255744814873,0.023555537685751915,0.0222509,-0.013900912,-0.003237143,0.026236193999999997,0.026435148,37.426540700000004,-122.1757769,0.056709999999995375
24,594599.8,-0.005599374882876873,0.012547435238957405,0.028514975681900978,0.02722672,-0.013710146999999999,-0.004895695,0.030483806000000002,0.030874427000000003,37.426540700000004,-122.1757769,0.4230400000000003
25,594600.0,-0.0075636995024979115,0.009005459025502205,0.03844041656702757,0.032651104,-0.013486628999999998,-0.014139322,0.035326814,0.038051337000000005,37.4265406,-122.1757768,-0.11099999999999
26,594600.2,-0.009204643778502941,-0.001859217882156372,0.054389392491430044,0.03919679,-0.009089937,-0.03182906,0.040236988,0.05130404,37.4265406,-122.1757767,0.6536260000000027
27,594600.4,-0.014087328687310219,-0.019037161022424698,0.06787839904427528,0.039492212,-0.004075199,-0.05363825,0.039701915,0.06673308,37.4265406,-122.17577659999998,0.6620099999999951
28,594600.6,-0.011156400199979544,-0.009836439043283463,0.06377240130677819,0.04191296,-0.00649394,-0.04371895,0.042413059,0.060911525,37.4265405,-122.17577659999998,0.18667999999999552
29,594600.8,-0.01562256459146738,-0.011575200594961643,0.06709526339545846,0.042211924000000005,-0.00934827,-0.048795834,0.04323467,0.0651941,37.426540700000004,-122.1757764,0.7673500000000075
30,594601.0,-0.0210875878110528,-0.009732049889862537,0.0823003826662898,0.053466275,-0.014955481000000001,-0.05910884,0.055518545999999995,0.08109355,37.4265406,-122.17577630000001,0.41675599999999235
31,594601.2,-0.043646883219480515,-0.045768690295517445,0.10571794491261244,0.046224512,-0.014860006,-0.10710354,0.048554354,0.11759546400000001,37.4265406,-122.17577620000002,0.14632999999999186
32,594601.4,-0.03423705976456404,-0.027401171624660492,0.07787529937922955,0.03660745,-0.016676353,-0.07385694,0.040226935,0.08410145,37.4265406,-122.1757761,0.1505200000000002
33,594601.6,-0.013571334537118673,0.006997578777372837,0.046490338165313005,0.036066674,-0.01750238,-0.022921812000000003,0.040089127999999995,0.046179514000000005,37.4265405,-122.1757759,0.3182299999999998
34,594601.8,0.018905993085354567,0.047773963771760464,-0.00501861609518528,0.026648097000000003,-0.01172703,0.049525400000000004,0.029114331,0.057449188,37.426540700000004,-122.1757759,-0.324309999999997
35,594602.0,0.0665485393255949,0.12408240884542465,-0.056688799522817135,0.040287375,-0.012036949,0.15236738,0.042047126,0.15806258,37.426540700000004,-122.1757757,-1.1052700000000044
36,594602.2,0.06751943519338965,0.12121967598795891,-0.08600058918818831,0.01585152,-0.009690711999999999,0.16866778,0.018579036,0.16968794,37.4265408,-122.17577549999999,-2.4225839999999863
37,594602.4,-0.0699263634160161,-0.016849608160555363,-0.016923440154641867,-0.044797834,-0.052503362000000005,-0.024243755,0.069017745,0.07315195,37.4265408,-122.17577539999999,-2.2993900000000025
38,594602.6,-0.16416395781561732,-0.15104091726243496,0.028799202293157578,-0.10801529,-0.060808825999999996,-0.1820828,0.123955701,0.22027066,37.426540700000004,-122.1757757,0.30198000000000036
39,594602.8,-0.15201463270932436,-0.14898015931248665,0.06120616663247347,-0.07728785,-0.051622786,-0.19525494,0.092942586,0.21624713,37.4265408,-122.1757757,-1.0649200000000008
40,594603.0,-0.08193935826420784,-0.13702229037880898,0.11916801473125815,-0.002428508,0.001322539,-0.19280912,0.002765278,0.19282895,37.426541,-122.1757759,0.6389539999999982
41,594603.2,-0.1939565227366984,-0.3937836326658726,0.27606178261339664,-0.046166167,0.043238662000000004,-0.5081184,0.063252641,0.51204026,37.4265412,-122.1757758,1.1179300000000012
42,594603.4,-0.35385434702038765,-0.5628585070371628,0.4022898613475263,-0.08464578,-0.002066835,-0.7660988000000001,0.084671008,0.77076364,37.4265416,-122.1757757,2.655290000000008
43,594603.6,-0.4296152354218066,-0.6461948109790683,0.519092807546258,-0.059276193,-0.021814382,-0.92513967,0.063162762,0.92729336,37.426542299999994,-122.17577560000001,1.5502400000000023
44,594603.8,-0.4439267059788108,-0.6736870082095265,0.555999540258199,-0.04874117,-0.019287843,-0.9721011,0.05241872400000001,0.97351336,37.4265431,-122.1757752,3.0560799999999944
45,594604.0,-0.4199404693208635,-0.6532147321850061,0.5131132369861007,-0.06450478,-0.009887246,-0.92213285,0.065258136,0.9244391,37.4265435,-122.17577490000001,2.3865049999999997
46,594604.2,-0.4043640564195812,-0.6075725071132183,0.4638727093115449,-0.07508861,-0.021008302000000003,-0.8549408000000002,0.077972102,0.85848904,37.4265444,-122.1757744,2.663650000000004
47,594604.4,-0.3720235824584961,-0.5718775978311896,0.46737857814878225,-0.04347633,-0.012642818,-0.8194020000000001,0.045277278,0.82065195,37.426544799999995,-122.1757743,3.4661940000000016
48,594604.6,-0.35925540840253234,-0.568414724431932,0.48700997047126293,-0.021972857000000002,-0.003679622,-0.8236056999999999,0.022278826,0.82390696,37.4265455,-122.1757741,3.48339
49,594604.8,-0.4073855569586158,-0.6214973293244839,0.536854347679764,-0.025272352999999997,-0.016150562,-0.90993255,0.029992207000000003,0.91042674,37.4265461,-122.175774,2.4476200000000006
50,594605.0,-0.45905672293156385,-0.6705817263573408,0.5734124663285911,-0.038212195,-0.0337478,-0.98699474,0.050981230999999995,0.9883105,37.4265469,-122.1757737,3.3597599999999943
51,594605.2,-0.4565456807613373,-0.6953045576810837,0.5957231968641281,-0.03239943,-0.018457089,-1.01611,0.037287898,1.0167938,37.4265476,-122.1757735,4.278559999999999
52,594605.4,-0.42949584824964404,-0.6804091027006507,0.6016126042231917,-0.011305903999999999,-0.003493655,-0.9982379000000001,0.011833389,0.998308,37.426548,-122.17577320000001,2.863820000000004
53,594605.6,-0.4226659615524113,-0.732888669706881,0.594219361897558,-0.041962564,0.03023353,-1.0261315999999998,0.05171966,1.0274341999999999,37.4265491,-122.1757727,4.362945999999994
54,594605.8,-0.36454730574041605,-0.6870815241709352,0.5734182973392308,-0.016108738,0.05503324,-0.95812196,0.057342383,0.95983636,37.4265495,-122.17577240000001,4.446040000000011
55,594606.0,-0.33288690354675055,-0.6858428735285997,0.6028587543405592,0.018154444,0.081171624,-0.9617928,0.08317701799999999,0.96538275,37.426550399999996,-122.1757719,3.968124000000003
56,594606.2,-0.3388419598340988,-0.7129439730197191,0.6708415537141263,0.0562736,0.09056293,-1.0238438,0.106622522,1.0293806,37.426551,-122.17577140000002,5.150283999999999
57,594606.4,-0.314455212559551,-0.6755811087787151,0.6745167477056384,0.08630426,0.09130801,-0.9906503000000001,0.125640673,0.9985858,37.4265516,-122.17577079999998,4.741169999999997
58,594606.6,-0.31458794651553035,-0.6446962328627706,0.6949904202483594,0.1184075,0.07474895599999999,-0.9823893,0.140027652,0.9923187,37.4265524,-122.17577050000001,5.191635000000005
59,594606.8,-0.3395206765271723,-0.6360227577388287,0.7180166859179735,0.13308604,0.049026635,-1.0010971,0.14182914300000002,1.0110939,37.4265526,-122.1757703,5.177500000000009
60,594607.0,-0.38452218379825354,-0.6836503408849239,0.7329549426212907,0.10588507,0.03629895,-1.0612202,0.111934188,1.0671071,37.4265531,-122.17576940000001,4.731760000000008
61,594607.2,-0.344202499371022,-0.6582392742857337,0.6800106042064726,0.08996064,0.05689451,-0.9949123,0.106442014,1.0005901,37.4265537,-122.1757693,4.437910000000002
62,594607.4,-0.43675407115370035,-0.7131048236042261,0.6808004025369883,0.032411855,0.007773853000000001,-1.0714103000000001,0.033331085,1.0719286,37.426553999999996,-122.17576899999999,5.920715000000001
63,594607.6,-0.3475286364555359,-0.5618721740320325,0.5291578685864806,0.018658891,0.002762132,-0.8398639999999999,0.018862226,0.8400757999999999,37.4265544,-122.1757695,6.747629999999994
64,594607.8,-0.3938724137842655,-0.549359792843461,0.5205785525031388,0.003283815,-0.0431272,-0.8458378000000001,0.04325204,0.8469429,37.4265544,-122.1757695,7.185829999999996
65,594608.0,-0.34553656494244933,-0.473521176725626,0.4076369437389076,-0.03175188,-0.042600103,-0.7057810999999999,0.053131445,0.70777816,37.4265549,-122.1757699,6.375652000000002
66,594608.2,-0.3964739111252129,-0.5410893335938454,0.4709933712147176,-0.032680972999999995,-0.049733315,-0.8112437,0.059510072000000004,0.8134235,37.4265545,-122.17577069999999,7.564800000000005
67,594608.4,-0.46654433431103826,-0.6599035272374749,0.3858044850639999,-0.18412821,-0.045771778,-0.868966,0.189732051,0.8894380999999999,37.4265544,-122.1757706,6.931182999999997
68,594608.6,-0.29343834798783064,-0.44082070607692003,0.20959918526932597,-0.15533815,-0.01591669,-0.54141283,0.15615147199999999,0.5634813,37.4265544,-122.17577040000002,7.593609999999998
69,594608.8,-0.34728180430829525,-0.5533850938081741,0.3963776654563844,-0.08234057,-0.001548455,-0.7533585,0.082355127,0.75784653,37.4265542,-122.17577050000001,8.243217999999999
70,594609.0,-0.3748494805768132,-0.6103380955755711,0.49186903052031994,-0.044726532,0.005446136,-0.86133295,0.045056887000000004,0.8625106,37.42655429999999,-122.17577040000002,7.792610000000003
71,594609.2,-0.47461894946172833,-0.7196075366809964,0.6466748979873955,-0.010287723,-0.020812921,-1.0710543,0.023216695,1.0713059999999999,37.426554100000004,-122.17577079999998,8.652053999999993
72,594609.4,-0.5118613461963832,-0.7094271825626493,0.6457281638868153,-0.01785561,-0.057756823,-1.0793853999999998,0.060453895,1.081077,37.4265542,-122.1757709,7.975307999999998
73,594609.6,-0.5366751071996987,-0.7619700497016311,0.6713144415989518,-0.032595652999999995,-0.05077973400000001,-1.1407465,0.060341182,1.1423413,37.4265545,-122.1757713,8.440190000000008
74,594609.8,-0.5564193753525615,-0.7025698618963361,0.6829897239804268,0.000842,-0.09912325,-1.1162646999999999,0.099126825,1.1206573999999998,37.426553999999996,-122.17577150000001,8.534466000000009
75,594610.0,-0.548869198653847,-0.7309818500652909,0.6490032118745148,-0.03831963,-0.07760278,-1.1115144,0.08654816900000001,1.1148789,37.42655379999999,-122.17577150000001,9.828774000000003
76,594610.2,-0.545937336049974,-0.7453813357278705,0.6470773224718869,-0.04630738,-0.06745323,-1.118783,0.081818771,1.1217707000000001,37.4265537,-122.1757712,9.603348000000004
77,594610.4,-0.5543143227696419,-0.8354076184332371,0.6743322466500103,-0.07368451,-0.026603196000000003,-1.1994025,0.078339886,1.2019582,37.4265535,-122.17577109999999,10.474136000000001
78,594610.6,-0.5205982523038983,-0.8429316971451044,0.6201997324824333,-0.10963171,0.005941444000000001,-1.1573031,0.10979258900000001,1.1624994,37.4265532,-122.17577079999998,9.973410000000001
79,594610.8,-0.4662065552547574,-0.8458349807187915,0.5949501977302134,-0.113573685,0.05352569,-1.1209076999999998,0.125554694,1.1279175,37.4265526,-122.1757703,10.937225000000005
80,594611.0,-0.4855029578320682,-0.920724987052381,0.6067837374284863,-0.14894514,0.077073,-1.1865985000000001,0.167704802,1.198391,37.426552,-122.17577040000002,10.99844000000001
81,594611.2,-0.5052349828183651,-0.8184115849435329,0.5102567719295621,-0.17935568,0.005887853,-1.0675073,0.179452296,1.0824856,37.426551399999994,-122.1757701,11.225029999999997
82,594611.4,-0.40204693377017975,-0.6028613923117518,0.3436479796655476,-0.16738972,-0.02155579,-0.7777284000000001,0.168771947,0.79583,37.4265505,-122.1757699,11.696888000000001
83,594611.6,-0.3921622261404991,-0.5639268886297941,0.326484948862344,-0.15779227,-0.033922445,-0.73694694,0.161397439,0.75441366,37.4265498,-122.1757701,11.987379999999995
84,594611.8,-0.22131516318768263,-0.2691310700029135,0.11956744967028499,-0.1151756,-0.04629777400000001,-0.34079190000000004,0.124132596,0.36269552,37.4265494,-122.1757702,11.591617999999997
85,594612.0,-0.017538436222821474,0.04604024812579155,-0.1393201844766736,-0.09269169999999999,-0.041651078,0.11456906,0.101619695,0.15314253,37.426548100000005,-122.1757701,12.370922
86,594612.2,0.07292537717148662,0.16773063503205776,-0.2991190832108259,-0.12771785,-0.029882869,0.33173862,0.131167206,0.35672867,37.426547,-122.1757701,11.693679999999993
87,594612.4,0.04564442532137036,0.09476686827838421,-0.20190781634300947,-0.096881226,-0.014119593,0.21207821,0.097904724,0.23358618,37.4265463,-122.1757702,12.637302000000005
88,594612.6,-0.031189712695777416,-0.06730541121214628,0.02331253606826067,-0.026263416,0.007152647,-0.06623049,0.027219981,0.071605906,37.426545700000005,-122.1757702,12.137504999999997
89,594612.8,0.07229655049741268,0.09634880628436804,-0.026054975111037493,0.052208617,0.007596881,0.11753894,0.05275843400000001,0.12883654,37.4265455,-122.1757703,11.594757000000001
90,594613.0,0.13029716396704316,0.1578253135085106,0.021133723203092813,0.14007758,0.023952484,0.15471077,0.14211069199999998,0.21007349,37.4265451,-122.17577,11.595279999999995
91,594613.2,0.14166267216205597,0.13598312716931105,0.10002300469204783,0.19516867,0.045203797999999996,0.09689098,0.20033519800000002,0.2225355,37.426545399999995,-122.1757695,12.895825000000002
92,594613.4,0.15334374783560634,0.14475469384342432,0.16083404794335365,0.25175327,0.050419886,0.07076922,0.256752566,0.26632717,37.4265458,-122.17576869999999,12.057953000000005
93,594613.6,0.23586608143523335,0.21318348217755556,0.08190935757011175,0.25098377,0.08382895,0.19962877,0.264613202,0.33146915,37.4265461,-122.17576820000001,12.708995999999999
94,594613.8,0.29218824207782745,0.30168125219643116,-0.013831511605530977,0.23870434,0.08437461,0.34111825,0.253177477,0.42480642,37.4265463,-122.17576799999999,12.171520000000001
95,594614.0,0.2529372228309512,0.25357446633279324,0.027326774783432484,0.23394011,0.076769434,0.2671698,0.246214383,0.36331972,37.4265467,-122.1757679,12.442097000000004
96,594614.2,0.20557272993028164,0.18250724580138922,0.07174709253013134,0.21732958,0.074523665,0.17237446,0.22975187,0.28722617,37.4265469,-122.1757676,13.582394
97,594614.4,0.14486277289688587,0.11009921226650476,-0.009719141758978367,0.09573961,0.061696037999999995,0.147541,0.11389676900000001,0.1863889,37.4265477,-122.17576709999999,12.454660000000004
98,594614.6,0.13484239485114813,0.0491086570546031,-0.1079293405637145,-0.016869218999999998,0.08569307,0.16199413,0.08733769400000001,0.18403795,37.4265479,-122.1757669,12.6216
99,594614.8,0.17478079348802567,0.13186718057841063,-0.17611095309257507,-0.015517573,0.075427435,0.27594838,0.077007095,0.28649187,37.4265482,-122.17576670000001,12.748244999999997
100,594615.0,0.19059082586318254,0.23057972826063633,-0.23397601069882512,-0.005575109,0.036243297,0.384153,0.036669585,0.3858992,37.4265482,-122.17576640000001,13.066948000000004
101,594615.2,0.11327430559322238,0.19289519265294075,-0.22174209356307983,-0.040267143,-0.009131286,0.3186912,0.041289505,0.3213548,37.4265484,-122.1757662,13.627919999999996
102,594615.4,0.09220581455156207,0.12016177363693714,-0.18652379186823964,-0.05653213,0.011767675,0.23948865,0.057743915,0.24635172,37.426548700000005,-122.175766,13.188354999999994
103,594615.6,0.14358421647921205,0.2052253857254982,-0.24554116325452924,-0.043014735,0.009957586,0.35426065,0.044152247,0.35700142,37.4265493,-122.17576570000001,12.669224
104,594615.8,0.13202007813379169,0.2088374188169837,-0.20713440421968699,-0.014399148,-0.001753995,0.32845673,0.014505583,0.32877690000000004,37.4265497,-122.1757652,13.474075000000006
105,594616.0,0.12752125039696693,0.17605940531939268,-0.1716322237625718,-0.004522883,0.011892942,0.28294559999999996,0.012723936000000002,0.28323156,37.426550299999995,-122.17576509999998,13.422267999999995
106,594616.2,0.15498877596110106,0.1738010235130787,-0.17999224551022053,-0.003434163,0.03634462,0.29812405,0.036506505,0.3003509,37.426551,-122.17576480000001,14.094142999999995
107,594616.4,0.11826404184103012,0.1548273740336299,-0.20393292186781764,-0.044091772,0.015363866,0.28438985,0.046691892,0.28819737,37.4265516,-122.1757642,14.24588
108,594616.6,0.16483055520802736,0.18697069492191076,-0.28375637251883745,-0.075876996,0.037661828,0.3742003,0.084709689,0.38366859999999997,37.4265525,-122.17576389999999,13.949200000000005
109,594616.8,0.1541434875689447,0.13515035528689623,-0.28753786999732256,-0.108995415,0.05621127,0.33714697,0.12263648199999999,0.35875866,37.4265532,-122.17576310000001,14.234898000000001
110,594617.0,0.09975505666807294,0.03213111311197281,-0.35532764764502645,-0.2334252,0.06503528,0.2860991,0.242315728,0.37492615,37.4265535,-122.1757627,14.570810000000002
111,594617.2,0.13203112548217177,0.03723331820219755,-0.4952252418734133,-0.33145228,0.08963737,0.38819975,0.34335909600000003,0.518261,37.42655379999999,-122.1757615,14.472969999999997
112,594617.4,0.07000094233080745,-0.05781033728271723,-0.5856498898938298,-0.47222759999999997,0.08774612,0.35303742,0.480310616,0.5960986999999999,37.4265544,-122.17576090000001,14.706319999999998
113,594617.6,-0.02436636295169592,-0.17515203543007374,-0.6099250516854227,-0.58240706,0.07035817,0.24901006,0.586641524,0.63730234,37.4265545,-122.1757597,15.281460000000003
114,594617.8,-0.07048959657549858,-0.17924943566322327,-0.6803861390799284,-0.6553973000000001,0.033500493,0.2695732,0.656252929,0.7094629,37.4265548,-122.1757594,15.570243999999995
115,594618.0,-0.09463691711425781,-0.13545876927673817,-0.8228103928267956,-0.7537898000000001,-0.010257525,0.3753538,0.753859563,0.8421370000000001,37.4265544,-122.17575890000002,16.45381600000001
116,594618.2,-0.19503534259274602,-0.13281064946204424,-1.021277051884681,-0.94252884,-0.09664689,0.4552933,0.947470983,1.0511866,37.4265542,-122.1757588,16.385815000000008
117,594618.4,-0.3167937067337334,-0.173407681286335,-1.1864451924338937,-1.1339828,-0.17808697,0.47689486,1.147881458,1.2430047,37.4265531,-122.1757585,16.311527000000005
118,594618.6,-0.45462800143286586,-0.2508215131238103,-1.34791953349486,-1.3466448999999998,-0.25352848,0.46470606,1.370302586,1.4469557,37.426552,-122.175758,15.880470000000003
119,594618.8,-0.5442954581230879,-0.32062396220862865,-1.5117343557067215,-1.5416618999999998,-0.29225382,0.47942504,1.5691187480000002,1.6407261000000002,37.426550799999994,-122.17575749999999,16.333503999999998
120,594619.0,-0.49817587761208415,-0.30276840552687645,-1.674866281915456,-1.6470995,-0.26272568,0.6100729,1.667921293,1.7759929,37.4265489,-122.1757578,16.958073
121,594619.2,-0.4805736509151757,-0.39651038497686386,-1.6873440421186388,-1.6995333,-0.19790766,0.56208944,1.711017555,1.800979,37.4265464,-122.17575790000001,17.878635000000003
122,594619.4,-0.39422520948573947,-0.40205102879554033,-1.7338685090653598,-1.7113848000000003,-0.12187016,0.62315595,1.7157185259999999,1.8253803,37.426544299999996,-122.1757577,17.313236000000003
123,594619.6,-0.3781844391487539,-0.42836878076195717,-1.665077664423734,-1.6651023999999999,-0.0942783,0.5704422,1.6677692659999999,1.7626283,37.4265417,-122.17575790000001,17.545975000000006
124,594619.8,-0.41092410823330283,-0.49058764707297087,-1.515561870764941,-1.5889684,-0.088857226,0.423908,1.591450997,1.6469407999999999,37.4265396,-122.175758,18.69847
125,594620.0,-0.29212078964337707,-0.3674780623987317,-1.5335385859943926,-1.5014671999999998,-0.05385765,0.5678244,1.502432837,1.6061535,37.426537200000006,-122.1757581,18.059900000000006
126,594620.2,-0.26261702505871654,-0.3434246117249131,-1.4916774150915444,-1.4463021999999999,-0.041693944,0.57102835,1.4469029930000001,1.555507,37.4265347,-122.17575829999998,18.593006000000003
127,594620.4,-0.29128669295459986,-0.387977784499526,-1.390106399077922,-1.3978382,-0.04223521400000001,0.4672278,1.398476158,1.4744618,37.426532200000004,-122.175758,18.693718000000004
128,594620.6,-0.25961531652137637,-0.384021763689816,-1.3810474956408143,-1.3783593,-0.017534586,0.4777749,1.378470852,1.4589211000000002,37.4265295,-122.1757578,19.003807000000002
129,594620.8,-0.2510596141219139,-0.35372794419527054,-1.3889720444567502,-1.3663002,-0.02642483,0.5065717000000001,1.366555771,1.4574256,37.4265269,-122.1757577,20.156570000000002
130,594621.0,-0.1530405143275857,-0.14461759570986032,-1.5760547574609518,-1.3755788,-0.05481425,0.80227894,1.37667043,1.5933841,37.4265242,-122.1757584,19.314888000000003
131,594621.2,-0.0333526274189353,0.14708470553159714,-1.889073759317398,-1.4353690000000001,-0.10884436,1.2392025,1.439489895,1.8994088,37.4265212,-122.1757588,19.72486
132,594621.4,-0.1381908101029694,0.0631510317325592,-1.8916534543968737,-1.5145228000000002,-0.15288539,1.1400177,1.522219831,1.9017868999999998,37.4265181,-122.17575900000001,20.035984
133,594621.6,-0.21783421514555812,0.029388977214694023,-1.8780729831196368,-1.5468808,-0.20231828,1.0753901000000001,1.560055461,1.8947921000000003,37.426515,-122.1757597,20.520690000000002
134,594621.8,-0.2589282323606312,0.0350869745016098,-1.8458865387365222,-1.5316888000000002,-0.24013534,1.0422808000000001,1.550398465,1.8681768,37.426512,-122.1757603,20.681206000000003
135,594622.0,-0.21385675389319658,0.12375364359468222,-1.881051859818399,-1.4994174,-0.24920242,1.1423116000000002,1.519985023,1.9013759,37.4265088,-122.17576100000001,19.602497
136,594622.2,-0.20015010051429272,0.1085956348106265,-1.8594647459685802,-1.4856358,-0.22952895,1.1247998,1.5032621519999998,1.8774909,37.426505999999996,-122.1757615,20.904987000000006
137,594622.4,-0.16983440658077598,0.12820663023740053,-1.8957650833763182,-1.4945639,-0.21431233,1.1728631999999999,1.509851293,1.9118732,37.426503000000004,-122.17576159999999,20.277554000000002
138,594622.6,-0.16998131340369582,0.11955969594419003,-1.9129870310425758,-1.512736,-0.20983204,1.1774554,1.527219567,1.9284194,37.4264999,-122.17576170000001,20.141605000000006
139,594622.8,-0.170255817938596,0.13361357804387808,-1.9442832553759217,-1.5304488,-0.21754831,1.205806,1.5458333530000001,1.9605021,37.4264964,-122.1757621,20.20592
140,594623.0,-0.09982033213600516,0.22142435610294342,-2.0795419639907777,-1.5698965,-0.20469102,1.3768188000000001,1.583184545,2.098119,37.4264929,-122.1757625,19.966152
141,594623.2,-0.013682365883141756,0.31039008032530546,-2.2245216662995517,-1.6113879999999998,-0.17915787,1.5611561999999999,1.621316991,2.2507502999999995,37.4264895,-122.1757628,20.55744
142,594623.4,0.032708768267184496,0.34379330184310675,-2.2772339414805174,-1.621052,-0.15767927,1.6352627,1.628702714,2.3079767,37.426485299999996,-122.1757635,19.132260000000002
143,594623.6,0.09334630751982331,0.3292594477534294,-2.3639914919622242,-1.6778009999999999,-0.09861495,1.7038628,1.6806966190000001,2.3933009999999997,37.4264815,-122.17576409999998,20.007073
144,594623.8,0.10123025206848979,0.32132175099104643,-2.369841402862221,-1.6839783,-0.08771487,1.7054166000000002,1.686261252,2.3983166000000002,37.426478,-122.17576470000002,19.325844000000004
145,594624.0,0.11787656461820006,0.4618242643773556,-2.464448206592351,-1.681446,-0.14844501,1.8643944,1.68798588,2.5150075000000003,37.426474600000006,-122.1757646,18.351074000000004
146,594624.2,0.13028707867488265,0.4559977641329169,-2.4227797142229974,-1.6473363999999997,-0.13483779999999998,1.8404025000000002,1.6528455180000001,2.4736571,37.4264714,-122.1757646,18.843432999999997
147,594624.4,0.12905512982979417,0.5182371586561203,-2.4307592837139964,-1.6220556000000002,-0.16902405,1.8865665,1.630838323,2.4937456,37.4264685,-122.1757645,17.746986
148,594624.6,0.210151600651443,0.6055075721815228,-2.461577294860035,-1.5753912,-0.14685534,1.9982513,1.5822211259999999,2.54881,37.4264658,-122.17576399999999,17.059419999999996
149,594624.8,0.19929389702156186,0.4638009872287512,-2.304898787755519,-1.5273763,-0.08058442,1.8031883999999998,1.529500624,2.3645,37.426463,-122.1757636,16.49167
150,594625.0,0.2444056118838489,0.4018470663577318,-2.19212383357808,-1.4550878,-0.009409494000000001,1.7120838,1.455118186,2.2469091,37.426460399999996,-122.17576329999999,16.11551
151,594625.2,0.32785103283822536,0.47156550362706184,-2.1211247188039124,-1.3358357,0.02409413,1.7510853,1.3360529620000001,2.2025752,37.426458200000006,-122.17576329999999,15.588463000000004
152,594625.4,0.32694322941824794,0.5057028364390135,-1.972846002317965,-1.2008159999999999,0.005147055,1.683532,1.2008270509999999,2.0679133000000003,37.426456,-122.17576340000001,15.709778000000007
153,594625.6,0.2352727078832686,0.4604863142594695,-1.7725062421523035,-1.0946468999999999,-0.04836613,1.4926171,1.095714875,1.8516201,37.4264539,-122.17576310000001,14.844414000000008
154,594625.8,0.26231158152222633,0.5496288742870092,-1.7169073610566556,-0.9958878000000001,-0.07294978,1.5301806,0.998556078,1.8271745,37.42645220000001,-122.17576310000001,15.365414000000008
155,594626.0,0.21147908456623554,0.46978106908500195,-1.502228754106909,-0.88292974,-0.07345513,1.3245432,0.8859800040000001,1.5935416999999998,37.4264508,-122.17576319999999,14.698031999999998
156,594626.2,0.2733524879440665,0.5398789783939719,-1.4548086491413414,-0.78918874,-0.05841256,1.3690072,0.7913475190000001,1.581269,37.4264494,-122.1757629,14.194340000000004
157,594626.4,0.2657919065095484,0.47947977762669325,-1.3420299054123461,-0.7331439999999999,-0.032648414,1.2566708,0.733870556,1.4552621000000001,37.4264481,-122.1757628,14.881490000000007
158,594626.6,0.2700163801200688,0.4429473290219903,-1.2797734616324306,-0.70112944,-0.009618605,1.1960653,0.7011954,1.3864514,37.4264473,-122.1757629,14.339029999999994
159,594626.8,0.2195959216915071,0.40454295463860035,-1.1992491106502712,-0.6732556,-0.031844508,1.0999906000000002,0.674008332,1.2900646,37.426446899999995,-122.17576299999999,14.375603000000005
160,594627.0,0.22593150939792395,0.4565711310133338,-1.2566642151214182,-0.6900368,-0.054187804000000006,1.1725353,0.692161148,1.3615896,37.426446,-122.1757626,13.367809999999999
161,594627.2,0.1914669475518167,0.34762085787951946,-1.250988912768662,-0.75272846,-0.025341468,1.0812784,0.753154914,1.3177273,37.4264448,-122.1757622,12.541170000000001
162,594627.4,0.1753046684898436,0.33555466774851084,-1.2935722758993506,-0.7979829,-0.032596093,1.0922128,0.798648357,1.3530587,37.4264437,-122.17576240000001,12.294827000000005
163,594627.6,0.022045884281396866,0.11246152501553297,-1.1364616695791483,-0.8375764000000001,-0.043516558,0.78196186,0.838706093,1.1466875,37.4264424,-122.175762,12.633457
164,594627.8,0.00440090661868453,0.06558753084391356,-1.1720080426894128,-0.89562774,-0.033490438,0.7645958,0.896253668,1.1780821000000001,37.426440899999996,-122.17576229999999,12.357040000000005
165,594628.0,-0.014925146475434303,0.10453375615179539,-1.2456643930636346,-0.94034106,-0.070587896,0.8273656999999999,0.942986709,1.2544950000000001,37.4264396,-122.1757619,13.143784000000004
166,594628.2,-0.023522970266640186,0.11941064242273569,-1.2578924563713372,-0.94518155,-0.08578745,0.8411610999999999,0.949066746,1.2681797,37.426438399999995,-122.17576170000001,12.259132000000001
167,594628.4,-0.20105843851342797,-0.06983148586004972,-1.0244990130886436,-0.9146399,-0.1352824,0.49703702,0.924590427,1.0497205,37.4264374,-122.1757619,11.482600000000005
168,594628.6,-0.34453872311860323,-0.17120064422488213,-0.8166119214147329,-0.84812987,-0.20274618,0.24188139,0.872026568,0.90495133,37.426436200000005,-122.1757625,11.394669999999998
169,594628.8,-0.39209695160388947,-0.14405922777950764,-0.7705347635783255,-0.8129682,-0.25745365,0.21201007,0.8527600329999999,0.8787195,37.4264348,-122.1757628,11.579955999999996
170,594629.0,-0.37940807454288006,-0.07525541633367538,-0.8460310837253928,-0.83342266,-0.2833527,0.30950633,0.880273865,0.93310034,37.4264333,-122.17576310000001,11.08952
171,594629.2,-0.35389710823073983,-0.05017772875726223,-0.9318429841659963,-0.8804124,-0.27511399999999997,0.38930276,0.9223956240000001,1.0011845,37.4264317,-122.1757635,11.454179999999994
172,594629.4,-0.27603254234418273,0.07313966657966375,-1.131224735174328,-0.9501132,-0.27487645,0.6262941,0.9890763770000001,1.1706905,37.426429999999996,-122.1757644,10.116447999999998
173,594629.6,-0.32242852821946144,0.06978832837194204,-1.182703950908035,-1.0077338,-0.31236228,0.63570726,1.0550344390000002,1.2317553999999997,37.426428,-122.1757655,10.799557
174,594629.8,-0.41080165235325694,0.013922027312219143,-1.2182253301143646,-1.093281,-0.3574133,0.5823715,1.150220667,1.2892493999999999,37.426426,-122.17576670000001,10.122740000000007
175,594630.0,-0.33664484368637204,-0.0612897677347064,-1.2637510909698904,-1.1441243,-0.254594,0.5908445,1.172108589,1.3126065,37.42642360000001,-122.1757675,10.835487
176,594630.2,-0.17779974918812513,-0.10035924427211285,-1.2069878475740552,-1.0677367,-0.099339254,0.5972595,1.072347891,1.2274562,37.4264213,-122.17576880000001,9.656150000000004
177,594630.4,-0.3643834413960576,-0.41910451371222734,-0.8448532642796636,-1.0045030000000001,-0.08753024,0.08401928,1.008309412,1.0118039,37.4264193,-122.1757695,10.140095000000002
178,594630.6,-0.45534498151391745,-0.5208846712484956,-0.6812138468958437,-0.9563461,-0.11032226,-0.12231176,0.9626883709999999,0.9704273000000001,37.4264175,-122.17576940000001,9.400265000000005
179,594630.8,-0.4713895716704428,-0.5655588479712605,-0.5151486718095839,-0.8526415,-0.10011298,-0.26005057,0.858498768,0.8970209000000001,37.426415500000004,-122.17577050000001,9.474514000000006
180,594631.0,-0.4340524203144014,-0.5271860882639885,-0.3802021727897227,-0.71365327,-0.08894421,-0.300481,0.7191745909999999,0.7794234999999999,37.4264143,-122.17577109999999,9.071391999999996
181,594631.2,-0.2674987530335784,-0.34106891229748726,-0.061526065692305565,-0.3109398,-0.047080382999999996,-0.2986184,0.31448389,0.43367392,37.426412799999994,-122.1757716,9.695965000000008
182,594631.4,-0.11300864163786173,-0.15431744046509266,0.12924216827377677,-0.01338009,-0.01576516,-0.22369576,0.020677695,0.22464941,37.426412,-122.17577209999999,8.064026000000005
183,594631.6,0.033016021363437176,0.04284806549549103,0.10258389310911298,0.11413137599999999,0.002839097,-0.013213433,0.114166684,0.11492879,37.426412,-122.17577209999999,8.060364000000007
184,594631.8,0.09619719395413995,0.08643332868814468,0.12956199562177062,0.17842367,0.03310701,0.02640611,0.181469231,0.18338038,37.42641210000001,-122.175772,9.507496000000003
185,594632.0,0.09111318131908774,0.026147887110710144,0.17391016939654946,0.18098545,0.06090679400000001,-0.04321825,0.190959077,0.19578862,37.42641210000001,-122.17577209999999,9.096523000000005
186,594632.2,0.1527530993334949,0.08620468433946371,0.07887199334800243,0.15635484,0.081098795,0.08097583,0.176135892,0.19385803,37.426412,-122.1757723,9.445720000000001
187,594632.4,0.1689590010792017,0.14030661154538393,-0.019415197428315878,0.11137688,0.06600562,0.18392825,0.129466408,0.22492477,37.4264119,-122.17577240000001,8.792862000000007
188,594632.6,0.09940070658922195,0.11143322475254536,-0.08377665840089321,0.022901256000000002,0.022505669,0.17422028,0.032108763,0.17715439,37.4264118,-122.17577299999999,8.623226000000003
189,594632.8,0.03582151420414448,0.0798331405967474,-0.061541950330138206,0.003726923,-0.014481441000000001,0.11257971,0.014953331,0.113568455,37.4264117,-122.1757733,8.793903000000007
190,594633.0,-0.02129849698394537,0.07527875062078238,-0.02126169577240944,0.014886041000000001,-0.060403652,0.060882885,0.062210895,0.08704551,37.4264115,-122.1757737,7.853012
191,594633.25,-0.04655694169923663,0.06760833971202374,0.017201573122292757,0.033310805,-0.077698275,0.021669732,0.084537754,0.08727089,37.426411200000004,-122.1757741,9.052543999999997
192,594633.5,-0.024584262166172266,0.06242923066020012,0.02096619037911296,0.040747344,-0.056342207000000005,0.025192572000000003,0.069532656,0.07395577,37.426411,-122.17577460000001,8.29703
193,594633.75,-0.0040176743641495705,0.039036103524267673,0.02456437749788165,0.03822725,-0.026477017000000002,0.015979023999999998,0.046501129,0.04916995,37.426411,-122.17577490000001,7.999100000000006
194,594634.0,0.001618943177163601,0.02164612803608179,0.02913863305002451,0.034738503,-0.012445625,0.003893695,0.036900641,0.0371055,37.426411200000004,-122.1757751,8.828465000000008
195,594634.1666666666,0.023701209109276533,0.054994963109493256,0.052355699241161346,0.07747736,-0.011513566000000001,0.021538092000000002,0.078328175,0.08123541599999999,37.4264113,-122.175775,8.94207800000001
196,594634.3333333334,-0.035108550917357206,0.11604153923690319,0.11043449072167277,0.13596958,-0.09379961,0.002404729,0.165185029,0.16520253,37.4264114,-122.175775,9.023228000000003
197,594634.5,-0.1487648645415902,0.20359044335782528,0.14979928312823176,0.17548317,-0.23662178,-0.010735251999999999,0.294591605,0.29478714,37.4264116,-122.175775,7.908512000000002
198,594634.6666666666,-0.3203225559554994,0.3244263119995594,0.21268476592376828,0.23205951,-0.44617867,-0.04028115,0.502918517,0.50452906,37.426412,-122.175775,8.840503999999996
199,594634.8333333334,-0.4417252102866769,0.3931495174765587,0.2737848390825093,0.27664277,-0.5855325,-0.08256052400000001,0.647595192,0.65283674,37.4264125,-122.17577560000001,8.702286
200,594635.0,-0.5098063731566072,0.47114779241383076,0.2804257618263364,0.300006,-0.6846930999999999,-0.06295919,0.7475347529999999,0.7501814,37.4264131,-122.17577649999998,8.029469999999996
201,594635.2,-0.5951425591483712,0.4954836340621114,0.3008698783814907,0.3011422,-0.76988256,-0.09511389,0.826683589,0.8321373,37.426413700000005,-122.17577790000001,10.177050000000001
202,594635.4,-0.6172934421338141,0.5909192841500044,0.2761897146701813,0.32346679999999994,-0.83945256,-0.02533307,0.899617358,0.8999739999999999,37.4264143,-122.17577949999999,8.561440000000005
203,594635.6,-0.6272455649450421,0.5911858826875687,0.2944789696484804,0.3349072,-0.8480181999999998,-0.040477697,0.911755315,0.9126534,37.4264149,-122.1757811,8.511703999999995
204,594635.8,-0.6595467310398817,0.5909567046910524,0.3190017663873732,0.34380993,-0.8752365,-0.06919513,0.9403425990000001,0.94288504,37.426415500000004,-122.17578290000002,9.193900000000006
205,594636.0,-0.6278690597973764,0.5797211900353432,0.3298095646314323,0.3568651,-0.8424408000000001,-0.06991954,0.914909394,0.9175771999999999,37.426416100000004,-122.17578470000001,8.858826000000008
206,594636.2,-0.5908718705177307,0.5715982802212238,0.3442258648574352,0.37610862,-0.80680007,-0.06849523,0.8901595520000001,0.8927908999999999,37.4264166,-122.17578629999998,9.238400000000006
207,594636.4,-0.5420586415566504,0.5644150385633111,0.35356794111430645,0.39562997,-0.7616584,-0.058358602,0.85828115,0.86026293,37.4264173,-122.17578799999998,9.195473
208,594636.6,-0.47366030840203166,0.5602598460391164,0.36798520386219025,0.42707774,-0.7015520000000001,-0.040988699999999996,0.8213224459999999,0.8223446,37.4264179,-122.17578940000001,9.234215000000006
209,594636.8,-0.3338529816828668,0.4523527566343546,0.3717266018502414,0.41978717,-0.52575403,-0.056671426,0.67278419,0.6751668000000001,37.4264185,-122.1757909,9.194424000000005
210,594637.0,-0.0983711862936616,0.2145770862698555,0.2897030138410628,0.30854604,-0.19981815,-0.06706507,0.367597534,0.37366518,37.426419200000005,-122.1757922,9.096523000000005
211,594637.2,-0.08135415660217404,0.11905741132795811,0.33107335260137916,0.29777095,-0.1345488,-0.14921677,0.326758195,0.3592166,37.4264196,-122.17579270000002,9.008564000000007
212,594637.4,-0.0974092548713088,-0.07929593045264482,0.37897638184949756,0.22858214,-0.042511724,-0.3184462,0.232501705,0.39429054,37.4264199,-122.1757929,8.21116
213,594637.6,-0.07236787024885416,-0.23908785358071327,0.35124564822763205,0.1324665,0.06377563,-0.3984106,0.147019401,0.4246713,37.4264202,-122.17579280000001,10.213695999999999
214,594637.8,-0.11356123955920339,-0.3320228010416031,0.3906366000883281,0.10261027,0.078398146,-0.5022385,0.129132246,0.5185737,37.4264206,-122.1757924,9.506447000000001
215,594638.0,-0.1957277860492468,-0.4379646209999919,0.510781959630549,0.11693267,0.065266535,-0.68121433,0.13391404,0.6942520999999999,37.4264209,-122.1757923,9.277667999999998
216,594638.2,-0.27841260517016053,-0.5656357621774077,0.6208236301317811,0.111885965,0.06326747,-0.86887467,0.128534982,0.87833047,37.4264217,-122.1757916,8.613274000000004
217,594638.4,-0.34889582730829716,-0.6686703031882644,0.6862227949313819,0.08800924,0.05847668,-1.0076839,0.105665262,1.0132086999999999,37.4264221,-122.1757913,9.77292
218,594638.6,-0.39051453303545713,-0.7133062845095992,0.7074324660934508,0.068422295,0.047019187000000004,-1.0681770000000002,0.083020568,1.0713983999999999,37.4264227,-122.1757906,9.58785300000001
219,594638.8,-0.46487262938171625,-0.7549521652981639,0.6791744725778699,0.0004940000000000001,0.006258153000000001,-1.1104417,0.00627759,1.1104593999999999,37.42642360000001,-122.17579009999999,9.702297000000002
220,594639.0,-0.47081202594563365,-0.7199992053210735,0.6645767441950738,0.0049592970000000005,-0.017382096,-1.0805874,0.018075727,1.0807385,37.426424,-122.17578940000001,9.814440000000005
221,594639.2,-0.4679811210371554,-0.6874777274206281,0.6225338946096599,-0.01078289,-0.032304186,-1.031979,0.034056294,1.0325408,37.426424499999996,-122.17578909999999,10.320778000000004
222,594639.4,-0.49258585181087255,-0.7029421785846353,0.516519095748663,-0.11089068,-0.044895038,-0.98834896,0.119634056,0.99556315,37.426425,-122.1757892,9.935641999999994
223,594639.6,-0.5519649074412882,-0.6269580833613873,0.5233551147393882,-0.08559233,-0.13561742,-0.96654004,0.16036873199999999,0.9797539000000001,37.42642539999999,-122.1757892,9.929040000000008
224,594639.8,-0.48727521765977144,-0.5371860228478909,0.48536639427766204,-0.04864535,-0.12866789999999997,-0.8557540000000001,0.137556534,0.86673915,37.4264253,-122.1757889,10.267894999999996
225,594640.0,-0.25059174839407206,-0.27454087417572737,0.1849349639378488,-0.07552282,-0.06819724,-0.39653566,0.101757358,0.40938379999999996,37.4264255,-122.17578950000001,10.61995300000001
226,594640.2,-0.09425348462536931,-0.043047416023910046,-0.025265822652727365,-0.07277219,-0.05914355,-0.04707077,0.093775001,0.10492573,37.4264259,-122.1757896,11.381428000000007
227,594640.4,0.011174107436090708,0.15797985345125198,-0.0733873569406569,0.02654253,-0.07695790400000001,0.16188343,0.081406542,0.18119954,37.4264259,-122.1757898,11.696297000000001
228,594640.6,0.0004393775016069412,0.16460477467626333,-0.06320299580693245,0.03456405,-0.08957187,0.15560742,0.09600934400000001,0.18284273,37.4264259,-122.1757898,10.902800000000006
229,594640.8,-0.04732663417235017,0.06882567703723907,-0.08056089794263244,-0.0439485,-0.07899801,0.08157704,0.090399979,0.121766046,37.426426,-122.17578970000001,10.211310000000005
230,594641.0,-0.09893742017447948,-0.03221690654754639,-0.10104179196059704,-0.12889299,-0.06887555,0.00428077,0.14614117199999999,0.14620386,37.4264262,-122.17578929999999,11.090714000000006
231,594641.2,-0.1549530946649611,-0.12692087702453136,-0.18957824632525444,-0.26604759999999994,-0.06585689,-0.029257303,0.27407745699999997,0.27563462,37.426426299999996,-122.17578909999999,10.38615
232,594641.4,-0.2526551531627774,-0.2807092210277915,-0.37937839049845934,-0.52750355,-0.06665900000000001,-0.058596432000000004,0.531698627,0.5349176999999999,37.4264262,-122.1757889,10.934207999999998
233,594641.6,-0.33412911370396614,-0.4055462284013629,-0.5461108777672052,-0.750496,-0.06914239400000001,-0.07563189,0.753674249,0.75745964,37.4264256,-122.1757889,11.146720000000002
234,594641.8,-0.4201945988461375,-0.5126313799992204,-0.7527189794927835,-0.9975093,-0.08496530000000001,-0.05844263,1.00112131,1.0028257,37.426424600000004,-122.17578909999999,10.335900000000002
235,594642.0,-0.5088856006041169,-0.6378497257828712,-0.9851840380579233,-1.275234,-0.09335427,-0.03883785,1.2786464290000001,1.2792361,37.4264232,-122.17578940000001,9.997208
236,594642.2,-0.6107637798413634,-0.6977144256234169,-1.1437424873001873,-1.4649165000000002,-0.14770702,-0.025797324,1.4723443219999999,1.4725703,37.42642120000001,-122.17578970000001,10.626419999999996
237,594642.4,-0.7352391160093248,-0.7786687593907118,-1.233934131450951,-1.6184684999999999,-0.20995587,-0.07803821,1.6320299530000002,1.6338947,37.426419,-122.1757902,11.386966999999999
238,594642.6,-0.7800179487094283,-0.8767522610723972,-1.3481491007842124,-1.7741171000000002,-0.19562647,-0.093490005,1.7848700830000002,1.7873168999999998,37.426416499999995,-122.17579099999999,10.629040000000003
239,594642.8,-0.8492571534588933,-0.9750532386824489,-1.4446484367363155,-1.9237252,-0.20188499999999998,-0.13019857,1.9342896719999998,1.9386666000000001,37.426413700000005,-122.17579199999999,10.441119999999998
240,594643.0,-0.9052858385257423,-1.029223145917058,-1.5371300233528018,-2.043166,-0.22046241,-0.13409874,2.055025718,2.0593963,37.42641079999999,-122.1757929,10.039085
241,594643.2,-0.8876003627665341,-1.061511715874076,-1.6285015707835555,-2.1266130000000003,-0.18829888,-0.09279265,2.1349330319999997,2.1369486,37.426407700000006,-122.1757939,10.462578000000008
242,594643.4,-0.8819188079796731,-1.1180749405175447,-1.7183854463510215,-2.2252505,-0.15336905,-0.0737837,2.230529464,2.2317495,37.4264042,-122.1757949,10.804919999999996
243,594643.6,-0.8762495559640229,-1.1722346721217036,-1.804965078830719,-2.3200316,-0.119729534,-0.05517253,2.323119036,2.3237740000000002,37.426400799999996,-122.17579579999999,11.27391
244,594643.8,-0.8678342835046351,-1.225684111006558,-1.8698262898251414,-2.3963113,-0.08414397400000001,-0.0481219,2.397788093,2.3982707999999997,37.4263971,-122.17579640000001,11.178646
245,594644.0,-0.8448247397318482,-1.2226229449734092,-1.953113017603755,-2.4534307,-0.066298366,0.014283206000000001,2.454326263,2.4543679,37.426393299999994,-122.175797,10.932636000000002
246,594644.2,-0.860313921701163,-1.251500179991126,-2.0129645047709346,-2.5208282000000004,-0.06403111,0.024696972,2.521641331,2.5217624,37.4263893,-122.17579779999998,11.730843
247,594644.4,-0.8989473623223603,-1.279273229651153,-2.036115643568337,-2.566003,-0.081941605,0.0037610729999999998,2.56731112,2.567314,37.42638529999999,-122.17579860000001,10.439550000000004
248,594644.6,-0.9305227594450116,-1.2666953671723604,-1.9993251748383045,-2.5405352000000003,-0.11536556,-0.023496537,2.5431531609999998,2.5432618,37.4263812,-122.17579950000001,11.32835
249,594644.8,-0.9495476041920483,-1.2137137074023485,-1.9411319349892437,-2.473225,-0.15968217,-0.031295847,2.4783746,2.4785721,37.4263771,-122.1758003,10.614384000000001
250,594645.0,-0.9574592672288418,-1.168605257757008,-1.8567908988334239,-2.3856034,-0.19039975,-0.055578813,2.393189495,2.3938347999999996,37.426373100000006,-122.17580120000001,11.388016000000007
251,594645.2,-0.9380860975943506,-1.040395480580628,-1.760544480290264,-2.2369492,-0.24227574,-0.019700541999999998,2.250030941,2.2501173,37.426369,-122.17580190000001,10.945725000000003
252,594645.4,-0.9401808455586433,-0.9806607225909829,-1.5982628758065403,-2.078026,-0.27585852,-0.07906014,2.096256293,2.0977466000000002,37.426365000000004,-122.1758028,10.110805999999997
253,594645.6,-0.8766325325705111,-0.8520808760076761,-1.4580219783820212,-1.8799473999999998,-0.29054087,-0.050989315,1.902266107,1.9029493000000002,37.42636160000001,-122.17580349999999,10.563606
254,594645.8,-0.6809178041294217,-0.590345025062561,-1.2372234179638326,-1.5066255,-0.26426274,0.07351825,1.529625868,1.5313916,37.4263578,-122.1758044,10.510212000000003
255,594646.0,-0.5746986893936992,-0.49620472360402346,-1.0299048298038542,-1.2591845,-0.22448806,0.055718805999999996,1.279038871,1.280252,37.426354499999995,-122.17580490000002,10.656258000000001
256,594646.2,-0.4832825534977019,-0.44096866622567177,-0.8357491064816713,-1.0469998999999999,-0.17652576,0.013508737,1.061776869,1.0618628,37.426352200000004,-122.17580509999999,9.917114000000005
257,594646.4,-0.4021604433655739,-0.38975108601152897,-0.687517860904336,-0.87668407,-0.13513662,-0.00784534,0.8870382529999999,0.887073,37.4263501,-122.17580509999999,10.214977000000005
258,594646.6,-0.3322040094062686,-0.3726425366476178,-0.5336030200123787,-0.7230141999999999,-0.085034706,-0.06030249,0.7279975009999999,0.7304908,37.4263482,-122.17580520000001,10.562035000000002
259,594646.8,-0.1821901868097484,-0.24946120381355286,-0.3005034029483795,-0.42598729999999996,-0.023656154,-0.055729392999999995,0.426643636,0.43026800000000004,37.4263465,-122.1758055,10.341656
260,594647.0,-0.03171451948583126,-0.1462119435891509,-0.06599479541182518,-0.13794519,0.04872747,-0.06521503,0.14629846900000001,0.16017567,37.4263453,-122.1758055,10.962993999999995
261,594647.2,-0.0023220027796924114,-0.1642719116061926,-0.0017563621513545513,-0.08670908,0.083223104,-0.10396514,0.12018548400000001,0.15891287,37.4263445,-122.17580530000001,11.000683000000002
262,594647.4,0.00730628939345479,-0.17266189493238926,-0.027353814337402582,-0.108236685,0.095840484,-0.08997624,0.14457032,0.170283,37.4263441,-122.17580490000002,11.111129999999996
263,594647.6,0.05141209904104471,-0.10672276001423597,-0.08641126938164234,-0.10694253,0.09805883,0.008889725,0.145093892,0.14536597,37.426344,-122.17580430000001,9.489929999999994
264,594647.8,-0.020576815120875835,-0.1667255498468876,-0.09412511344999075,-0.16723220000000003,0.069078475,-0.057197616,0.18093767800000002,0.18976304,37.4263433,-122.1758038,9.886227000000005
265,594648.0,-0.113442147616297,-0.2257390981540084,-0.13391203247010708,-0.2592396,0.021901122999999998,-0.11195621,0.26016309600000004,0.28322965,37.4263433,-122.17580349999999,9.811890000000005
266,594648.2,0.15999219147488475,-0.03296600095927715,-0.35319993644952774,-0.24572712,0.15068646,0.26652329999999996,0.288250285,0.3925849,37.4263427,-122.17580339999999,9.465847000000004
267,594648.4,0.004884458612650633,-0.15599210374057293,-0.4041195488534868,-0.39964756,0.08491366,0.1491816,0.408568844,0.43495247,37.426342,-122.17580339999999,9.98726
268,594648.6,-0.21508676698431373,-0.3180232448503375,-0.4653403456322849,-0.60280496,-0.014990047,-0.015547683999999999,0.602991315,0.60319173,37.4263413,-122.17580349999999,9.797752000000003
269,594648.8,-0.38412521267309785,-0.4235530383884907,-0.48085344349965453,-0.72411615,-0.10187115,-0.14853813,0.7312468190000001,0.7461806,37.4263404,-122.1758037,10.014479999999999
270,594649.0,-0.463274787645787,-0.48041156586259604,-0.46629341086372733,-0.7674174,-0.13858679999999998,-0.22907697,0.7798305590000001,0.8127804,37.42633920000001,-122.17580430000001,10.554184
271,594649.2,-0.4412252511829138,-0.4742513792589307,-0.44506266340613365,-0.74025255,-0.12320404,-0.22851463,0.750435266,0.7844565,37.426338,-122.17580500000001,9.802986000000004
272,594649.4,-0.37054978124797344,-0.4107439676299691,-0.3584152557887137,-0.6159014,-0.09720168,-0.20859842,0.623524426,0.6574922,37.426336600000006,-122.1758054,10.327526000000006
273,594649.6,-0.4342662380076945,-0.46690784115344286,-0.41159247141331434,-0.70764303,-0.12122435,-0.24097694,0.717951248,0.7573135999999999,37.4263355,-122.1758057,9.138638000000007
274,594649.8,-0.3931251266039908,-0.4252881836146116,-0.4065921572037041,-0.66894805,-0.10856486,-0.19864225,0.677700405,0.7062129,37.426334499999996,-122.1758061,9.749591999999993
275,594650.0,-0.39834114629775286,-0.44844938442111015,-0.4427111675031483,-0.7112337,-0.10064608,-0.1944652,0.718319557,0.74417716,37.4263334,-122.1758065,10.862496
276,594650.2,-0.48995855543762445,-0.5296209612861276,-0.6750041567720473,-0.9671109,-0.13496765,-0.14659563,0.9764833340000001,0.9874259,37.4263323,-122.17580690000001,10.183040000000005
277,594650.4,-0.5970399039797485,-0.6347630470991135,-0.8465941804461181,-1.1921171,-0.16961351,-0.1582697,1.204122897,1.2144798,37.426330799999995,-122.1758074,10.534290000000006
278,594650.6,-0.7054389636032283,-0.6985225016251206,-0.999233391135931,-1.3812128000000001,-0.22741164,-0.1542021,1.399808925,1.4082767,37.426328999999996,-122.1758081,10.307633000000003
279,594650.8,-0.7871665325947106,-0.7737379716709256,-1.160680125001818,-1.5745641000000001,-0.25653398,-0.14120309,1.595324991,1.6015618,37.4263269,-122.17580900000002,10.961426000000003
280,594651.0,-0.8184338011778891,-0.7889012768864632,-1.278874745592475,-1.6863456000000001,-0.2749245,-0.09278593,1.708609055,1.7111266,37.4263243,-122.17581000000001,10.21707
281,594651.2,-0.8089335123077035,-0.7925680158659816,-1.2096171090379357,-1.6301573999999999,-0.26493067,-0.13332394,1.651545122,1.6569178,37.4263216,-122.17581090000002,10.875584000000003
282,594651.4,-0.5650824960321188,-0.5813569314777851,-0.8483594232238829,-1.155704,-0.17100377,-0.10778447,1.1682867940000001,1.1732483,37.4263186,-122.17581200000001,11.227852000000006
283,594651.6,-0.32671365793794394,-0.3825928485020995,-0.4346041972748935,-0.6477376,-0.07508886,-0.12483491,0.6520754329999999,0.66391724,37.4263162,-122.17581299999999,9.916590000000006
284,594651.8,-0.21013906551524997,-0.2488945797085762,-0.18835489312186837,-0.34568018,-0.04761437,-0.13532537,0.348944004,0.3742658,37.4263148,-122.1758135,9.790950000000002
285,594652.0,-0.07799567608162761,-0.10528915096074343,-0.1140631171874702,-0.17004503,-0.012237871,-0.028066525,0.170484838,0.17277965,37.426314399999995,-122.1758137,11.479610000000001
286,594652.2,0.01731677632778883,-0.09917259123176336,0.06076220469549298,0.0027822570000000002,0.06517929,-0.089897595,0.065238645,0.111075014,37.42631420000001,-122.1758135,10.618569999999998
287,594652.4,0.07467605220153928,-0.11248255055397749,0.1577365668490529,0.09150947,0.12081708,-0.13352312,0.151561047,0.20198806,37.4263141,-122.1758135,10.434310000000004
288,594652.6,0.093149668071419,-0.07232082542032003,0.18189822137355804,0.13733517,0.11506673,-0.11339943,0.17916835600000003,0.21203946,37.4263143,-122.1758131,10.025475
289,594652.8,0.056779597885906696,-0.009133846499025822,0.20595694053918123,0.17717420000000003,0.05063428,-0.10092909,0.184267543,0.21009809,37.4263146,-122.1758128,10.799683000000002
290,594653.0,0.05186926480382681,-0.003543882630765438,0.19160447968170047,0.16706279999999998,0.04350133,-0.09052559,0.172633562,0.19492878,37.426315,-122.17581259999999,10.191940000000002
291,594653.25,0.0037490841932594776,0.04275185987353325,0.18607023730874062,0.17090939,-0.021881782000000002,-0.07639308,0.172304473,0.18848006,37.4263152,-122.17581259999999,11.117410000000007
292,594653.5,-0.04209963418543339,0.01571703515946865,0.13734844652935863,0.10347273,-0.046292547,-0.08434362,0.113356105,0.14129208,37.4263154,-122.1758128,11.117410000000007
293,594653.75,-0.0533320652320981,-0.025471925735473633,0.08529418148100376,0.03731166,-0.033866096,-0.085144006,0.050389207000000005,0.09893722,37.4263156,-122.1758129,10.737915000000008
294,594654.0,-0.048430309165269136,-0.06118947360664606,0.04685324290767312,-0.010002522,-0.01069697,-0.08371712,0.014644986,0.08498842,37.4263156,-122.1758131,10.540053999999998
295,594654.1666666666,-0.05028216214850545,-0.07517254259437323,0.021459972020238638,-0.03796046,-0.0048182,-0.07846664,0.038265017000000005,0.08729963,37.4263156,-122.17581340000001,10.719597
296,594654.3333333334,-0.1006818120367825,-0.0837946580722928,-0.012788904830813408,-0.08590492,-0.042886034,-0.08476107599999999,0.096014931,0.12807539,37.4263157,-122.1758135,10.872966999999996
297,594654.5,-0.08992727566510439,-0.09582032635807991,-0.046981404069811106,-0.115763865,-0.027379317,-0.06751611,0.118957555,0.13678204,37.4263157,-122.1758136,11.110079999999996
298,594654.6666666666,-0.08931046444922686,-0.07483970280736685,-0.07017653621733189,-0.12319169999999999,-0.038029764,-0.039056025,0.12892811,0.13471389,37.4263155,-122.1758139,11.050933999999998
299,594654.8333333334,-0.07716835103929043,-0.05570298247039318,-0.033060939982533455,-0.07994333,-0.03794306,-0.04361491,0.088490742,0.09865531,37.4263152,-122.17581409999998,11.752827000000003
300,594655.0,-0.0999989714473486,-0.07268180511891842,0.014974095858633518,-0.05791989,-0.048225842000000005,-0.09387538,0.075368731,0.12038701,37.426314899999994,-122.1758143,11.122120000000002
301,594655.2,-0.07915631262585521,-0.08109692577272654,0.05249272286891937,-0.025708513,-0.026103016,-0.113519356,0.036637347,0.11928512,37.4263148,-122.1758145,11.197494999999996
302,594655.4,-0.04927623365074396,-0.04709405638277531,0.06206565722823143,0.009055162,-0.018919019,-0.08384559,0.020974395,0.08642921,37.4263146,-122.1758148,10.769848000000003
303,594655.6,-0.03273563785478473,-0.045342689380049706,0.052862660959362984,0.008000766,-0.005851365999999999,-0.070080474,0.009912151,0.07077799,37.4263146,-122.17581499999999,10.588210000000004
304,594655.8,-0.04300682945176959,-0.0675815474241972,0.03223076881840825,-0.023147615,-0.0027025459999999997,-0.07683343,0.023304846,0.08029004,37.426314700000006,-122.1758152,11.522529999999996
305,594656.0,-0.04744872450828552,-0.07031252142041922,0.06014783913269639,-0.003820123,-0.005007964,-0.097513966,0.006298654,0.09771718,37.426314899999994,-122.1758152,10.818005
306,594656.2,-0.058843064587563276,-0.048261518590152264,0.02812726004049182,-0.02159314,-0.02639488,-0.06805017599999999,0.034102101,0.07611688,37.4263148,-122.1758155,10.395050000000005
307,594656.4,-0.06556408246979117,-0.047918845899403095,-0.023461018688976765,-0.064559974,-0.03226616,-0.039309625,0.072174063,0.08218481,37.4263148,-122.175816,10.773514000000006
308,594656.6,-0.0433413446880877,-0.051276092417538166,-0.020231281872838736,-0.056530095999999995,-0.01166861,-0.034131367,0.057721819,0.06705788,37.426314700000006,-122.17581640000002,10.963519999999995
309,594656.8,-0.025634557474404573,-0.04128759913146496,-0.025882096495479345,-0.050148938,-0.002000275,-0.01649515,0.050188815,0.05282998,37.4263146,-122.17581670000001,10.802300000000002
310,594657.0,-0.016442844178527594,-0.062361172400414944,-0.0014907303266227245,-0.03864458,0.017001797,-0.0415968,0.042219244,0.059268527,37.4263146,-122.1758169,11.124737000000003
311,594657.2,0.0710215256549418,-0.14602643810212612,-0.0031497953459620476,-0.05469363,0.13558649,-0.059838064,0.146202216,0.15797368,37.426314700000006,-122.175817,10.332755999999996
312,594657.4,0.1787214339710772,-0.20792880933731794,0.004051257390528917,-0.045962695,0.25970984,-0.060278263,0.263745644,0.27054617,37.426315,-122.17581709999999,11.901466000000006
313,594657.6,0.2896126448176801,-0.22752268612384796,-0.012883312534540892,-0.033602085,0.3640044,-0.016262125,0.36555206,0.3659136,37.4263152,-122.175817,11.828190000000006
314,594657.8,0.31743927812203765,-0.2569848941639066,-0.00403296435251832,-0.032723643,0.40324652,-0.029676901000000002,0.404572121,0.4056591,37.4263153,-122.17581650000001,11.536140000000003
315,594658.0,0.37585023790597916,-0.2661735247820616,-0.0073057194240391254,-0.021145584,0.4575798,-0.009162874,0.45806812799999996,0.45815974,37.4263153,-122.17581570000002,10.321766000000004
316,594658.2,0.47113207867369056,-0.3446723511442542,0.010464790277183056,-0.01657732,0.58003014,-0.032433696,0.58026698,0.5811727,37.4263154,-122.1758146,11.001731999999997
317,594658.4,0.6499302387237549,-0.4526164038106799,0.02250011870637536,-0.004681674,0.7888504,-0.03669306,0.788864337,0.78971726,37.4263153,-122.1758135,11.132590000000008
318,594658.6,0.7290274794213474,-0.5090597495436668,0.010590039193630219,-0.01757615,0.88585687,-0.033944946000000004,0.886031233,0.88668126,37.4263153,-122.1758122,10.865112000000003
319,594658.8,0.8051060955040157,-0.5486399251967669,0.024233766365796328,-0.0024799089999999998,0.9713284,-0.03666863,0.971331541,0.9720234000000001,37.4263153,-122.17581059999999,10.507600000000004
320,594659.0,0.9067575167864561,-0.6205036928877234,0.04450593004003167,0.009549528,1.0956368,-0.054306306,1.095678482,1.0970235000000002,37.4263152,-122.17580890000002,10.068924000000003
