,seconds of week [s],ECEF_vel_x,ECEF_vel_y,ECEF_vel_z,IMU_ATTI(0):velN[meters/Sec],IMU_ATTI(0):velE[meters/Sec],IMU_ATTI(0):velD[meters/Sec],IMU_ATTI(0):velH[meters/Sec],IMU_ATTI(0):velComposite[meters/Sec],GPS(0):Lat[degrees],GPS(0):Long[degrees],Normalized barometer:Raw[meters]
0,594416.0,0.0023540263064205647,0.0003652172163128853,-0.0009575369767844677,0.000129,-0.000491,0.008190931,0.000508,0.008206655,37.4265655,-122.1757759,0.5031500000000051
1,594416.2,0.00236945366486907,-0.0008421484380960464,0.00014062132686376572,0.00038500000000000003,0.000165,0.006718501,0.00041900000000000005,0.006731565,37.4265654,-122.1757758,1.0529099999999971
2,594416.4,0.003550269640982151,-0.0019206637516617775,0.0011211158707737923,0.000991,0.001738793,0.00589702,0.00200154,0.00622744,37.4265653,-122.1757758,1.3752059999999915
3,594416.6,0.0016156714409589767,-0.007901888340711594,0.008631350006908178,0.003252244,0.0032864120000000003,-0.003505798,0.004623591,0.005802432,37.4265653,-122.17577560000001,1.1666299999999978
4,594416.8,0.008365578018128872,-0.0035410868003964424,0.0033984649926424026,0.003524358,0.006677466999999999,0.005460116,0.007550475,0.009317861,37.4265652,-122.17577549999999,0.9344700000000046
5,594417.0,0.010750641115009785,-0.00032398663461208344,0.0019591464661061764,0.004808130999999999,0.006983072,0.009505908,0.008478290999999999,0.012737492,37.4265652,-122.17577549999999,0.5267300000000006
6,594417.2,0.0061341398395597935,-0.006098741665482521,0.011590840294957161,0.007992352,0.006150727,-0.002181579,0.010085095,0.010318354,37.4265652,-122.1757753,1.0450500000000034
7,594417.4,-0.0014012288302183151,-0.014736236073076725,0.01263077650219202,0.001936319,0.004372251,-0.011806081000000001,0.004781830999999999,0.012737718,37.426565100000005,-122.1757753,0.9826900000000052
8,594417.6,-0.001979887019842863,-0.006309335120022297,0.005307196639478207,0.000268,-0.000605,-0.00193562,0.000662,0.002045732,37.4265652,-122.1757753,1.0099400000000003
9,594417.8,0.0010254052467644215,-0.0026672715321183205,0.0013330336660146713,-4.1899999999999995e-05,-7.21e-07,0.0041986440000000005,4.1899999999999995e-05,0.004198853,37.426565000000004,-122.1757751,0.869489999999999
10,594418.0,0.0004491605795919895,-0.005252102389931679,0.002568400464951992,-0.0005769999999999999,0.0008880000000000001,0.001466724,0.001058881,0.001809008,37.426565000000004,-122.1757751,1.3500500000000102
11,594418.2,0.0023120432160794735,-0.0004094727337360382,0.0008877981454133987,0.0011823489999999999,-0.00011399999999999999,0.0065309619999999995,0.0011878,0.006638097,37.426565000000004,-122.1757751,-0.06656999999999869
12,594418.4,0.001235398929566145,-0.0016268864274024963,0.0018691630102694035,0.000987,-0.000377,0.004660934,0.00105625,0.004779118,37.426564899999995,-122.175775,0.7866799999999898
13,594418.6,-0.001974433194845915,-0.009412534534931183,0.007787310052663088,0.000643,0.001052121,-0.005526464,0.001233078,0.005662357,37.426564899999995,-122.17577490000001,1.1640199999999936
14,594418.8,0.0018670540302991867,-0.0037894072011113167,0.00206055399030447,0.000231,0.001309223,0.0033581559999999997,0.001329519,0.003611763,37.4265648,-122.17577479999999,1.019369999999995
15,594419.0,0.0005545280873775482,-0.0058376118540763855,0.0034663472324609756,-0.000131,0.001288978,0.000572,0.001295573,0.001416142,37.42656470000001,-122.17577479999999,0.5723339999999979
16,594419.2,0.0008438839577138424,-0.005219665355980396,0.003867387305945158,0.000599,0.001204828,0.000866,0.001345297,0.001599699,37.42656470000001,-122.17577460000001,0.7861599999999953
17,594419.4,0.0005684774369001389,-0.006126212887465954,0.005006320774555206,0.0009480000000000001,0.00145447,-0.000552,0.0017361579999999998,0.001821846,37.42656470000001,-122.17577450000002,0.869489999999999
18,594419.6,0.001758059486746788,-0.003747996874153614,0.0027266540564596653,0.000746,0.001194916,0.00293508,0.001408679,0.0032556209999999998,37.4265646,-122.1757744,0.8212740000000025
19,594419.8,-0.0031871949322521687,-0.011477389372885227,0.00924382358789444,0.00034500000000000004,0.001125185,-0.008312448,0.001177029,0.008395366999999999,37.4265646,-122.1757744,1.3673500000000018
20,594420.0,-0.0005233748815953732,-0.0077716028317809105,0.005856000352650881,0.00042300000000000004,0.001406502,-0.0026361009999999996,0.001468729,0.003017647,37.4265646,-122.1757743,1.1388600000000082
21,594420.2,-0.0018711923621594906,-0.0099638057872653,0.0077585563994944096,0.00037,0.001433067,-0.005835878,0.001480156,0.006020659,37.426564500000005,-122.1757743,1.1456760000000088
22,594420.4,0.0009628045372664928,-0.005958599038422108,0.004763490986078978,0.0009689999999999999,0.001698979,-0.000125,0.001955811,0.001959808,37.426564500000005,-122.1757743,0.9292299999999898
23,594420.6,-0.001838470809161663,-0.011083862744271755,0.009295076131820679,0.001024627,0.002057212,-0.0075087190000000005,0.0022982560000000003,0.007852569,37.4265644,-122.1757743,1.0660199999999946
24,594420.8,-0.0004478008486330509,-0.008677721954882145,0.0072627197951078415,0.0010984669999999999,0.0019529929999999999,-0.004068133,0.0022407160000000002,0.004644407,37.4265644,-122.1757742,0.6405260000000084
25,594421.0,0.00116353714838624,-0.010868080891668797,0.00872215861454606,0.001652204,0.0044832629999999995,-0.005745974,0.004778015,0.007472994,37.4265644,-122.1757741,0.6263799999999975
26,594421.2,0.0010246029123663902,-0.015942171216011047,0.008177749812602997,-0.001435237,0.007067703000000001,-0.008884517,0.007211958,0.011443206000000001,37.426564299999995,-122.175774,-1.4926399999999944
27,594421.4,-0.004120687488466501,-0.01679688598960638,0.010979772079735994,-0.001314918,0.003167778,-0.013337828999999999,0.0034298429999999997,0.013771765,37.42656420000001,-122.17577390000001,-0.12042999999999893
28,594421.6,-0.003298433031886816,-0.0173935666680336,0.010674900840967894,-0.001597854,0.004181493,-0.013205894,0.004476385,0.013943947,37.42656420000001,-122.17577390000001,-0.9820899999999995
29,594421.8,-0.0019465168006718159,-0.017166297882795334,0.012554207351058722,0.000449,0.005204757,-0.013623557,0.005224091,0.014590833999999999,37.42656420000001,-122.1757737,-0.25145999999999447
30,594422.0,-0.007045096717774868,-0.020714714191854,0.021091971546411514,0.003753721,0.002778809,-0.023353602999999997,0.0046703529999999995,0.023816023,37.42656420000001,-122.1757737,-0.21372000000000924
31,594422.2,-0.01107935095205903,-0.027159366756677628,0.027140898164361715,0.003936583,0.0027960209999999997,-0.033067743999999996,0.0048284999999999995,0.03341841,37.42656420000001,-122.1757736,0.10492999999999597
32,594422.4,-0.008672819472849369,-0.034602479077875614,0.030144677497446537,0.003272034,0.008796536,-0.038878612,0.009385375,0.039995395,37.42656420000001,-122.1757735,0.2217940000000027
33,594422.6,0.004621273372322321,-0.009145203046500683,0.009528049267828465,0.0042974879999999995,0.006492498,-0.003615444,0.007785945,0.008584426,37.4265641,-122.17577340000001,-0.7446599999999961
34,594422.8,0.015747100114822388,0.017190602608025074,-0.012687053065747023,0.003803738,0.001885365,0.032292772000000004,0.0042453529999999995,0.032570634,37.42656420000001,-122.17577340000001,-0.623580000000004
35,594423.0,0.03867398574948311,0.05570796597748995,-0.045134834945201874,0.005269369,0.00078,0.08759845,0.005326714000000001,0.087760255,37.4265641,-122.1757733,-1.0130199999999974
36,594423.2,0.06585163669660687,0.09391846228390932,-0.07898636162281036,0.006838075999999999,0.0034359779999999997,0.14534858,0.007652791999999999,0.14554991,37.4265641,-122.17577320000001,-1.616339999999994
37,594423.4,0.08639884926378727,0.12120525632053614,-0.11438892362639308,-0.00059,0.006296874,0.19389482,0.0063244780000000006,0.19399793,37.4265641,-122.17577320000001,-2.3591499999999996
38,594423.6,0.007433724589645863,0.03088632319122553,-0.1140108397230506,-0.072306156,-0.012444436000000001,0.0995619,0.073369234,0.12367545,37.4265641,-122.17577309999999,-2.033079999999998
39,594423.8,-0.13220183178782463,-0.14118446875363588,-0.09968058438971639,-0.1946311,-0.039004177,-0.083858356,0.19850086399999997,0.21548739,37.4265641,-122.1757729,-1.3207000000000022
40,594424.0,-0.12910266360267997,-0.09952486865222454,-0.07193231070414186,-0.15016232,-0.058565404,-0.07140927,0.161178877,0.17628929,37.4265631,-122.17577279999999,0.23017999999999006
41,594424.2,-0.08945379080250859,0.002626418136060238,-0.04248651722446084,-0.06139946,-0.079403065,-0.003874687,0.100373006,0.10044777,37.426562200000006,-122.17577279999999,-0.24831399999999348
42,594424.4,-0.1357511691749096,-0.02394474856555462,0.03936806321144104,-0.025047796,-0.10444049,-0.091060296,0.10740208400000001,0.14080904,37.426561799999995,-122.1757723,0.6903099999999966
43,594424.6,-0.18964340956881642,-0.10337002575397491,0.16862506791949272,0.019301258,-0.10776067,-0.24579316,0.109475566,0.26907095,37.426561799999995,-122.175772,1.0676200000000051
44,594424.8,-0.22326737269759178,-0.13290939666330814,0.18288028798997402,0.004544714,-0.12049045,-0.28853136,0.120576129,0.31271225,37.426561799999995,-122.175772,0.8779200000000031
45,594425.0,-0.18342641880735755,-0.13863132242113352,0.14552171295508742,-0.015172488,-0.083721265,-0.25282472,0.085084984,0.26675794,37.4265614,-122.1757723,1.1829100000000068
46,594425.2,-0.12492114678025246,-0.13200834952294827,0.12166007794439793,-0.011780628000000001,-0.037728097,-0.20912996,0.039524582,0.21283217,37.4265614,-122.17577209999999,1.2499849999999952
47,594425.4,-0.10180984623730183,-0.10498261079192162,0.037348362151533365,-0.057353545,-0.03255789,-0.12995063,0.06595032599999999,0.14572787,37.4265614,-122.1757723,1.495740000000012
48,594425.6,-0.1669877083040774,-0.14172953180968761,0.03868698421865702,-0.09628710000000001,-0.06815737,-0.18302734,0.11796878,0.21775132,37.4265617,-122.17577220000001,0.9586260000000095
49,594425.8,-0.17285111313685775,-0.14600294176489115,0.08479985222220421,-0.06376321,-0.07084461,-0.21640418,0.095313725,0.23646453,37.426561799999995,-122.17577240000001,2.613900000000001
50,594426.0,-0.18044165102764964,-0.16644233744591475,0.1210878356359899,-0.04791643,-0.066385075,-0.25540668,0.081871624,0.268208,37.4265615,-122.17577240000001,1.9458500000000072
51,594426.2,-0.1775741158053279,-0.1946530630812049,0.1496008662506938,-0.038857035,-0.04893526,-0.29048505,0.06248623,0.29712975,37.4265614,-122.17577209999999,3.173966000000007
52,594426.4,-0.1912964298389852,-0.25414340384304523,0.2012681271880865,-0.032869566,-0.028870508,-0.36767614,0.043748309000000006,0.37026972,37.426561,-122.17577209999999,1.6398500000000098
53,594426.6,-0.20613437704741955,-0.31041772942990065,0.24248448852449656,-0.03388822,-0.011462631000000001,-0.43682584,0.035774341,0.43828827,37.426561,-122.17577250000001,2.106186000000008
54,594426.8,-0.16816910495981574,-0.3635645639151335,0.2423472860828042,-0.049049407,0.048973486,-0.45641106,0.06931267599999999,0.46164414,37.4265607,-122.17577220000001,2.3011000000000053
55,594427.0,-0.12537321634590626,-0.33029760140925646,0.2204642160795629,-0.03546455,0.06748156,-0.4026528,0.076233167,0.40980577,37.4265608,-122.1757723,2.2607500000000016
56,594427.2,-0.10897599766030908,-0.30145363509655,0.21042396174743772,-0.023293637000000002,0.0660006,-0.37022865,0.069990524,0.37678632,37.426561299999996,-122.17577220000001,2.73754000000001
57,594427.4,-0.12865848327055573,-0.32344278041273355,0.20890211034566164,-0.04218346,0.06105054,-0.3924077,0.074206555,0.3993625,37.4265609,-122.17577220000001,2.336730000000003
58,594427.6,-0.1473276074975729,-0.3552637528628111,0.24030646588653326,-0.03965509,0.06219382,-0.44077757,0.073760406,0.44690654,37.426561299999996,-122.1757723,1.7132000000000005
59,594427.8,-0.15659947879612446,-0.36389986891299486,0.29671768099069595,-0.00230024,0.0589448,-0.48478705,0.058989663,0.48836282,37.42656160000001,-122.1757726,3.074425000000005
60,594428.0,-0.135036104824394,-0.37295104563236237,0.2972523388452828,0.00044699999999999997,0.08201636400000001,-0.48207700000000003,0.082017585,0.48900422,37.4265617,-122.17577250000001,3.573689999999999
61,594428.2,-0.1336964457295835,-0.34952475130558014,0.296819269657135,0.012587279,0.07067539,-0.46550083,0.071787532,0.47100368,37.426562100000005,-122.17577220000001,2.7810300000000012
62,594428.4,-0.1440174882300198,-0.3268059687688947,0.3108059107325971,0.032040982999999995,0.04984133,-0.46309490000000003,0.059251858,0.46687007,37.426562700000005,-122.1757719,2.458280000000002
63,594428.6,-0.13665255438536406,-0.32059135008603334,0.29845881555229425,0.027816126,0.052765768,-0.4482992,0.059648665999999996,0.45225010000000004,37.426562700000005,-122.1757713,3.51764
64,594428.8,-0.10908935545012355,-0.2809062758460641,0.25160411605611444,0.019941892,0.054962844000000004,-0.38149226,0.058468739000000006,0.3859468,37.426563,-122.175771,2.7092499999999973
65,594429.0,-0.08786461176350713,-0.2322755502536893,0.22736921394243836,0.03258115,0.04703122,-0.32509983,0.057214220999999996,0.33009598,37.426563200000004,-122.1757706,3.018889999999999
66,594429.25,-0.08863009139895439,-0.2640714533627033,0.2199440966360271,0.010080869000000001,0.063315146,-0.34228322,0.06411264900000001,0.34823588,37.4265631,-122.1757703,4.025269999999992
67,594429.5,-0.10015695309266448,-0.25070723332464695,0.2069508326239884,0.002906648,0.04644191599999999,-0.3302782,0.046532785,0.33354008,37.426563200000004,-122.1757701,3.31280000000001
68,594429.75,-0.10068738972768188,-0.24616685137152672,0.20675855036824942,0.004917884,0.043575116,-0.32733375,0.04385175400000001,0.330258,37.4265635,-122.17576969999999,4.039929999999998
69,594430.0,-0.04238572344183922,-0.15124553442001343,0.1330919391475618,0.014113301000000002,0.042375624,-0.19410494,0.044664065999999995,0.19917732,37.4265635,-122.1757695,3.9624000000000024
70,594430.1666666666,0.020804728846997023,-0.016416803933680058,0.045742637012153864,0.034553642999999995,0.02406274,-0.023668585,0.042106647000000004,0.048302915,37.4265638,-122.1757693,2.7380699999999933
71,594430.3333333334,0.025056587532162666,0.017746279016137123,0.01603883132338524,0.02991462,0.009469191,0.01914518,0.03137754,0.036757145,37.4265637,-122.1757693,3.296036000000001
72,594430.5,0.02400500187650323,0.028116210363805294,0.008656255435198545,0.029045902000000002,0.003056949,0.030157546,0.029206325,0.04198198400000001,37.4265634,-122.1757692,3.003700000000009
73,594430.6666666666,0.007738514803349972,0.012504946440458298,0.033687375485897064,0.035629027,-0.002398069,-0.002427303,0.035709637999999995,0.035792038,37.426563200000004,-122.1757692,3.542259999999999
74,594430.8333333334,-0.06031723693013191,0.01157552283257246,0.012822402641177177,-0.0034437709999999996,-0.05950686,-0.0191515,0.059606424000000005,0.06260756,37.426563,-122.1757692,4.435429999999997
75,594431.0,-0.08737814193591475,0.06065240502357483,-0.012134622782468796,-0.00677533,-0.10854599,0.017560221,0.10875723699999999,0.110165775,37.42656289999999,-122.1757692,3.1582500000000095
76,594431.2,-0.12651361105963588,0.026108519174158573,-0.05409154109656811,-0.070529856,-0.12327583,0.0032899659999999996,0.142026022,0.14206412,37.4265628,-122.17576940000001,3.461579999999998
77,594431.4,-0.1715726088732481,0.008473102003335953,-0.13263692148029804,-0.15655972,-0.15202349999999998,0.020116493,0.218224857,0.21915010000000001,37.4265624,-122.1757699,4.164085
78,594431.6,-0.2264816635288298,-0.043569513596594334,-0.21874038549140096,-0.2694788,-0.17078605,0.014243438,0.319040272,0.31935805,37.426562,-122.1757702,4.048320000000004
79,594431.8,-0.2773229801096022,-0.08665397949516773,-0.3321812152862549,-0.3981828,-0.19087595,0.032726099999999994,0.441568986,0.44278005,37.4265614,-122.1757706,4.162514000000002
80,594432.0,-0.3203520285896957,-0.1320586772635579,-0.4278548350557685,-0.5114425,-0.20311783,0.04215498,0.550300145,0.5519124,37.4265606,-122.175771,4.045169999999999
81,594432.2,-0.33789926255121827,-0.1720328265801072,-0.5235481509007514,-0.61367756,-0.19668326,0.06602206,0.644425678,0.6477989000000001,37.426559499999996,-122.17577150000001,4.44905
82,594432.4,-0.3786079538986087,-0.21428739558905363,-0.5909482114948332,-0.7021129,-0.20863864,0.061366532,0.7324565829999999,0.7350228,37.4265585,-122.17577209999999,3.8518700000000052
83,594432.6,-0.4437695532105863,-0.2614947156980634,-0.656412513460964,-0.7994725,-0.23865402,0.041864604,0.834333289,0.835383,37.426556899999994,-122.1757727,3.8958740000000063
84,594432.8,-0.5091070495545864,-0.3102550068870187,-0.7132770176976919,-0.8908584999999999,-0.2679913,0.016017957,0.930294672,0.93043256,37.4265555,-122.1757733,3.186009999999996
85,594433.0,-0.5470477994531393,-0.34355982579290867,-0.7906801849603653,-0.98173803,-0.28236973,0.02462804,1.021539165,1.021836,37.4265539,-122.175774,3.5930800000000005
86,594433.2,-0.5548002971336246,-0.37403440475463867,-0.8423249083571136,-1.0409361,-0.27270338,0.032252267,1.076064643,1.0765479,37.426552,-122.17577460000001,4.302379999999999
87,594433.4,-0.5480820592492819,-0.39567109011113644,-0.8987364848144352,-1.0946902,-0.25549504,0.0548336,1.124110453,1.1254469999999999,37.4265499,-122.17577539999999,3.8880160000000075
88,594433.6,-0.515440980438143,-0.4607779746875167,-0.9464002279564738,-1.1554692,-0.1931965,0.053841617,1.1715092409999999,1.1727458,37.426547799999994,-122.17577620000002,3.446915000000004
89,594433.8,-0.5022225822322071,-0.5119235422462225,-0.9731083624064922,-1.1987107,-0.15477233,0.04128473,1.208661161,1.2093661,37.4265455,-122.1757767,3.6569900000000075
90,594434.0,-0.5101575553417206,-0.5464188633486629,-0.9929092796519399,-1.2347479,-0.14311932,0.02677629,1.243014654,1.2433031,37.4265431,-122.17577709999999,3.4139100000000013
91,594434.2,-0.5148407923988998,-0.5633964473381639,-1.025483756326139,-1.2708654,-0.13804246,0.03318092,1.278340595,1.2787712,37.4265406,-122.17577759999999,2.7254939999999976
92,594434.4,-0.5165794277563691,-0.5611244142055511,-1.0290303495712578,-1.2730758,-0.14072397,0.036128283,1.280829942,1.2813393999999998,37.42653789999999,-122.17577800000001,3.559020000000004
93,594434.6,-0.547588583547622,-0.5643297201022506,-1.0252023567445576,-1.2817203000000001,-0.16526385,0.018533904,1.292330858,1.2924638000000002,37.426535200000004,-122.17577849999999,4.1279400000000095
94,594434.8,-0.5585902566090226,-0.5178005360066891,-1.0185250085778534,-1.2560432,-0.19935344,0.041098814,1.271765003,1.2724289,37.4265327,-122.1757791,3.5705499999999972
95,594435.0,-0.5553584564477205,-0.5138693545013666,-0.9915332403033972,-1.2315399999999999,-0.1987114,0.028703846,1.247468196,1.2477983,37.4265299,-122.1757797,3.3468500000000034
96,594435.2,-0.5262489044107497,-0.5165830422192812,-0.9727028855122626,-1.2085613000000002,-0.17262742,0.027745862000000003,1.2208278259999998,1.2211431000000001,37.4265273,-122.17578030000001,4.161469999999994
97,594435.4,-0.5024598534218967,-0.5204343423247337,-0.9581559589132667,-1.1912913,-0.15044102,0.026376456,1.2007528920000001,1.2010425,37.42652460000001,-122.175781,3.177109999999999
98,594435.6,-0.48243196215480566,-0.5230586174875498,-0.9466920816339552,-1.1770557,-0.13209155,0.02611497,1.184444311,1.1847322,37.426522,-122.17578130000001,3.642319999999998
99,594435.8,-0.4441727022640407,-0.5179571816697717,-0.9237308101728559,-1.1438152,-0.10242476,0.031768847,1.148391878,1.1488312,37.4265195,-122.1757818,3.344229999999996
100,594436.0,-0.4192047705873847,-0.5012771664187312,-0.8997418447397649,-1.108104,-0.090173796,0.038960166,1.111766923,1.1124493999999998,37.4265169,-122.17578219999999,3.6569900000000075
101,594436.2,-0.42651142552495,-0.508638322353363,-0.899298713542521,-1.1139033999999999,-0.092438355,0.030653005,1.117732362,1.1181526000000002,37.426514399999995,-122.1757825,3.51764
102,594436.4,-0.4098072205670178,-0.49434264842420816,-0.861601164098829,-1.0712066999999998,-0.08591227,0.024415693999999998,1.074646355,1.0749238,37.426512200000005,-122.17578290000002,3.7402900000000017
103,594436.6,-0.40194012969732285,-0.49608659464865923,-0.8274519238620996,-1.0424387,-0.07832473,0.00581638,1.045377087,1.0453932,37.42651,-122.17578329999999,3.274029999999996
104,594436.8,-0.36849994165822864,-0.45758666936308146,-0.7925103954039514,-0.9840635,-0.07052214400000001,0.024600854,0.9865872179999999,0.9868939,37.426507799999996,-122.17578370000001,3.113190000000003
105,594437.0,-0.3429840519092977,-0.4358897600322962,-0.7812492209486663,-0.9557018,-0.06047895599999999,0.04313134,0.957613523,0.95858437,37.4265057,-122.1757841,3.2583160000000078
106,594437.2,-0.34975413233041763,-0.4384097382426262,-0.7696278835646808,-0.94996023,-0.064867355,0.031511698,0.952172382,0.9526937,37.426503499999995,-122.1757844,3.601455999999999
107,594437.4,-0.35379868606105447,-0.42947329115122557,-0.7511761039495468,-0.93201905,-0.07304955,0.024594154,0.934877383,0.9352007999999999,37.4265013,-122.1757848,3.8744000000000085
108,594437.6,-0.34098332980647683,-0.4242846202105284,-0.7094494150951505,-0.89206594,-0.064965434,0.008142155,0.894428397,0.89446545,37.4264994,-122.17578529999999,3.2672199999999947
109,594437.8,-0.33936260594055057,-0.4086223477497697,-0.7096283696591854,-0.88362676,-0.07193404,0.019464007,0.886549913,0.8867636000000001,37.426497600000005,-122.1757856,3.6842299999999994
110,594438.0,-0.35186862014234066,-0.42839969135820866,-0.7110931635834277,-0.89901096,-0.071987614,0.001771837,0.901888514,0.9018903,37.4264958,-122.17578590000002,3.423860000000005
111,594438.2,-0.34631415642797947,-0.43198318779468536,-0.7202750355936587,-0.90634835,-0.065377936,0.007292267,0.908703246,0.9087325,37.426494,-122.1757861,3.982833999999997
112,594438.4,-0.37696715677157044,-0.43915625661611557,-0.7303269719704986,-0.92794114,-0.08750346,-0.004383066,0.9320577329999999,0.93206805,37.426491999999996,-122.17578629999998,2.177445000000006
113,594438.6,-0.41769296023994684,-0.40822269674390554,-0.7401353274472058,-0.9329980999999999,-0.13844721,0.005148015,0.943214232,0.9432283000000001,37.4264901,-122.1757868,3.8204350000000034
114,594438.8,-0.452440588735044,-0.4090733081102371,-0.7549720574170351,-0.9564635,-0.16740532,-0.001101197,0.971003097,0.9710037,37.4264882,-122.1757872,2.9858799999999945
115,594439.0,-0.502603018656373,-0.39584867656230927,-0.8092276793904603,-1.0089811,-0.21690612,0.019548386,1.032032525,1.0322175999999998,37.4264862,-122.17578789999999,3.9697400000000016
116,594439.2,-0.5233947467058897,-0.37382719200104475,-0.8175938948988914,-1.0110259,-0.24623145,0.030642487000000003,1.040578382,1.0410295,37.4264842,-122.17578870000001,3.575790000000012
117,594439.4,-0.5650284443981946,-0.3649531174451113,-0.8336565867066383,-1.032691,-0.28619662,0.028762944,1.07161522,1.0720011999999999,37.4264822,-122.1757896,3.202254999999994
118,594439.6,-0.6235189102590084,-0.37011539563536644,-0.8221230148337781,-1.0451168,-0.3329551,-0.006451414,1.096871961,1.0968909,37.426480100000006,-122.1757906,3.0450799999999987
119,594439.8,-0.6532922564074397,-0.37635701335966587,-0.8665693621151149,-1.0932594999999998,-0.35483208,0.003774335,1.1494006829999999,1.1494069,37.426478,-122.17579170000002,3.4055249999999972
120,594440.0,-0.6822916930541396,-0.38475876674056053,-0.904065459035337,-1.1367435,-0.3749037,0.008651411999999999,1.196970619,1.1970018999999998,37.4264758,-122.17579280000001,4.340096000000003
121,594440.2,-0.7195582427084446,-0.3830519821494818,-0.956602965015918,-1.189648,-0.40735573,0.025968397,1.257458228,1.2577263,37.4264736,-122.175794,3.7848100000000073
122,594440.4,-0.7212211173027754,-0.3965553753077984,-0.9810221795924008,-1.2165245,-0.40157244,0.031029241000000003,1.281090238,1.281466,37.4264714,-122.17579509999999,3.4212400000000116
123,594440.6,-0.7340151807293296,-0.4170109983533621,-0.9925064113922417,-1.2403076000000002,-0.40150863,0.018848592,1.303676373,1.3038126,37.4264689,-122.17579599999999,3.0450799999999987
124,594440.8,-0.7205639919266105,-0.4284528596326709,-0.9996970086358488,-1.2475504,-0.3840303,0.021216119,1.305320358,1.3054928,37.4264665,-122.17579679999999,2.751170000000002
125,594441.0,-0.7028141147457063,-0.4533978430554271,-1.0059682480059564,-1.2596180000000001,-0.35572284,0.015766388,1.308883635,1.3089786,37.4264641,-122.17579769999999,2.8098449999999957
126,594441.2,-0.6927119945175946,-0.45908977556973696,-0.9848783574998379,-1.2425283999999999,-0.34414116,0.0033952659999999996,1.2893060170000001,1.2893105,37.4264616,-122.1757988,2.671524000000005
127,594441.4,-0.6837995252572,-0.439036313444376,-0.9797369060106575,-1.2252454,-0.34727627,0.017518897,1.27350972,1.2736303,37.426459200000004,-122.1757996,3.315940000000012
128,594441.6,-0.6910793636925519,-0.4404043620452285,-0.9563409113325179,-1.2097256,-0.35270956,-0.000698,1.260095314,1.2600955,37.4264568,-122.1758005,3.1551060000000035
129,594441.8,-0.6970590418204665,-0.4340439522638917,-0.9580112993717194,-1.2097155000000002,-0.36115790000000003,0.002063704,1.26247636,1.2624781,37.426454299999996,-122.17580149999999,3.672709999999995
130,594442.0,-0.6980192800983787,-0.43045295402407646,-0.988925093319267,-1.2327287,-0.36388293,0.02285906,1.285313513,1.2855166999999998,37.426452000000005,-122.1758027,2.63485
131,594442.2,-0.7112716692499816,-0.41989292949438095,-0.9754956378601491,-1.2209207,-0.38072340000000005,0.016191231,1.278904839,1.2790073,37.4264495,-122.175804,3.6009400000000085
132,594442.4,-0.730982419103384,-0.402521307580173,-0.9375958326272666,-1.1882662,-0.40665764,-0.003500923,1.255924727,1.2559296,37.426446999999996,-122.17580520000001,3.47363
133,594442.6,-0.741450541652739,-0.38597752805799246,-0.9348620194941759,-1.1809728000000002,-0.42432790000000004,0.001530995,1.25489084,1.2548918,37.426444599999996,-122.1758063,2.523769999999999
134,594442.8,-0.7566156699322164,-0.3779334621503949,-0.9380279537290335,-1.184257,-0.44144756,0.002448885,1.263859447,1.2638618000000001,37.4264423,-122.1758074,2.823990000000009
135,594443.0,-0.7456125365570188,-0.3669467829167843,-0.9285393697209656,-1.1675091999999998,-0.43798488,0.008720274,1.246959708,1.2469902,37.4264399,-122.1758086,2.7988400000000127
136,594443.2,-0.7482596794143319,-0.3799745924770832,-0.926758065354079,-1.1736528999999998,-0.43328795,-0.002238651,1.251079332,1.2510813,37.4264376,-122.17580990000002,3.7863849999999957
137,594443.4,-0.7568021272309124,-0.3733666203916073,-0.9382929829880595,-1.1821786,-0.44403729999999997,0.005600798000000001,1.262820398,1.2628328000000002,37.4264355,-122.17581090000002,3.2803200000000032
138,594443.6,-0.7700889981351793,-0.36121814884245396,-0.9427218032069504,-1.1837465,-0.46175283,0.010839351,1.270618525,1.2706648,37.4264331,-122.17581200000001,3.6051259999999985
139,594443.8,-0.7769288313575089,-0.36970009934157133,-0.9640469821169972,-1.2072583000000001,-0.46302542,0.015205797,1.2930062740000001,1.2930957,37.4264309,-122.1758132,2.289050000000003
140,594444.0,-0.7558536492288113,-0.3956714114174247,-0.9526093904860318,-1.2047145000000001,-0.43135682,-0.00029,1.279611563,1.2796116000000002,37.4264286,-122.17581440000001,2.482383999999996
141,594444.25,-0.7410310436971486,-0.4309231014922261,-0.9547592825256288,-1.2197584,-0.40003857,-0.016410222,1.283682723,1.2837876,37.4264262,-122.17581559999999,3.803153999999992
142,594444.5,-0.7125780149362981,-0.4615128915756941,-0.9628211236558855,-1.2326878000000001,-0.3596658,-0.02003975,1.284086762,1.2842431,37.4264239,-122.17581659999999,3.6381299999999896
143,594444.75,-0.6896922048181295,-0.47915929555892944,-0.9801499517634511,-1.2481200000000001,-0.3308978,-0.011691483999999999,1.291238463,1.2912914,37.426421500000004,-122.1758176,3.7795799999999957
144,594445.0,-0.6677319346927106,-0.4776127077639103,-0.9967925744131207,-1.2534338,-0.31313378,0.008749294,1.2919555109999998,1.2919851999999998,37.426419,-122.1758187,2.9544449999999927
145,594445.2,-0.6538261082023382,-0.45727259665727615,-0.9816481051966548,-1.2264436,-0.31219506,0.019097965,1.2655551090000001,1.2656993,37.4264166,-122.17581969999999,3.379329999999996
146,594445.4,-0.6610923367552459,-0.43397686444222927,-0.9630926214158535,-1.2020761999999998,-0.3307507,0.020406863,1.246749036,1.246916,37.4264143,-122.17582079999998,3.5333559999999977
147,594445.6,-0.6667322469875216,-0.4124234113842249,-0.9302040138281882,-1.1666963,-0.347002,0.012521538,1.217206124,1.2172705,37.426412,-122.1758219,2.6647200000000026
148,594445.8,-0.6653686561621726,-0.40781812742352486,-0.8900374360382557,-1.1319883999999998,-0.34830022,-0.008217274,1.184360923,1.1843894,37.426409899999996,-122.175823,3.9959300000000013
149,594446.0,-0.6531759141944349,-0.41690957080572844,-0.8935809037648141,-1.1355331,-0.3331387,-0.0070185709999999995,1.183392045,1.1834128000000002,37.426407700000006,-122.17582409999999,4.401380000000003
150,594446.1666666666,-0.6252005347050726,-0.4256412060931325,-0.8959079259075224,-1.1328188999999997,-0.30481005,0.000357,1.173110362,1.1731103999999999,37.4264056,-122.1758251,2.812989999999999
151,594446.3333333334,-0.628887951374054,-0.40272159967571497,-0.8947211215272546,-1.1212798000000002,-0.32013622,0.013482227,1.166085604,1.1661636,37.4264036,-122.1758259,4.147840000000002
152,594446.5,-0.6313326163217425,-0.38128795847296715,-0.8854480227455497,-1.1036813,-0.3336192,0.021219783,1.153002276,1.1531975,37.4264016,-122.1758268,3.46472
153,594446.6666666666,-0.6261755987070501,-0.37625438533723354,-0.8675619610585272,-1.0852191,-0.33193466,0.0159139,1.13484856,1.13496,37.4263994,-122.17582790000002,3.1048100000000005
154,594446.8333333334,-0.6296117077581584,-0.3815432731062174,-0.8427356714382768,-1.0693363999999999,-0.33202663,-0.004182249,1.1196973129999999,1.1197051000000002,37.4263974,-122.17582890000001,4.054600000000008
155,594447.0,-0.6271675787866116,-0.3738758508116007,-0.8429454262368381,-1.0647678,-0.33404090000000003,0.002132633,1.115936326,1.1159383,37.426395299999996,-122.17582979999999,3.0592299999999994
156,594447.2,-0.6412619925104082,-0.3744631540030241,-0.8321643122471869,-1.0610697,-0.34565794,-0.010774663,1.1159517620000001,1.1160038,37.426393100000006,-122.17583090000001,4.040450000000007
157,594447.4,-0.6332810777239501,-0.3335065580904484,-0.8271004585549235,-1.0333971,-0.36071279999999994,0.01705264,1.094542462,1.0946753,37.426390999999995,-122.1758318,2.61233
158,594447.6,-0.6526814438402653,-0.3181114485487342,-0.8190107955597341,-1.0253321,-0.3853318,0.014280123999999998,1.095347682,1.0954407,37.426388700000004,-122.1758328,2.668909999999997
159,594447.8,-0.647249782923609,-0.31395277101546526,-0.7876053773798048,-0.9964949000000001,-0.3829489,0.000286,1.067544797,1.0675448,37.4263866,-122.17583379999999,3.3044199999999933
160,594448.0,-0.6356934681534767,-0.33290968369692564,-0.7801359943114221,-0.99657476,-0.36307254,-0.012108698999999999,1.0606521359999999,1.0607213,37.4263847,-122.17583470000001,3.930970000000002
161,594448.2,-0.6336727729067206,-0.3435859428718686,-0.8082454763352871,-1.0237353999999999,-0.3556769,-0.0013470620000000002,1.0837620959999998,1.0837629,37.426382700000005,-122.17583540000001,3.040369999999996
162,594448.4,-0.6134839365258813,-0.3446779139339924,-0.8350160140544176,-1.0390226999999999,-0.33800718,0.022726215,1.092619339,1.0928556999999999,37.4263807,-122.17583619999999,4.113790000000009
163,594448.6,-0.6183974342420697,-0.3514192271977663,-0.8488531811162829,-1.0550692,-0.3385762,0.024526497,1.108063527,1.1083348999999998,37.426378799999995,-122.1758372,2.8140300000000025
164,594448.8,-0.6379954675212502,-0.36891044210642576,-0.84931207774207,-1.0707738000000002,-0.34585,0.00476053,1.125241677,1.1252518,37.426376899999994,-122.17583799999998,3.4013400000000047
165,594449.0,-0.6386900101788342,-0.36011230014264584,-0.843663708306849,-1.0619872,-0.35112303,0.0069478990000000004,1.118527656,1.1185492,37.426375,-122.1758389,2.7909850000000063
166,594449.2,-0.625976565759629,-0.3747652191668749,-0.8295730520039797,-1.0542204,-0.3325592,-0.006088486,1.10543036,1.1054472,37.426373100000006,-122.1758402,3.579979999999992
167,594449.4,-0.5939568248577416,-0.3665955625474453,-0.8081163070164621,-1.0226157,-0.30980754,-9.65e-05,1.068514685,1.0685147,37.4263713,-122.17584129999999,3.444819999999993
168,594449.6,-0.589740754570812,-0.3851415328681469,-0.8294108444824815,-1.0477021,-0.29636294,0.002162013,1.08881157,1.0888136999999998,37.4263695,-122.17584240000001,3.3709500000000077
169,594449.8,-0.5771787147969007,-0.40376702696084976,-0.8535087276250124,-1.0723546,-0.2758118,0.009600207,1.10725625,1.1072978999999998,37.426367600000006,-122.1758433,3.499300000000005
170,594450.0,-0.5970796644687653,-0.4216143321245909,-0.8759923842735589,-1.105831,-0.28315237,0.0028522,1.14150669,1.1415102,37.4263657,-122.175844,3.0314599999999956
171,594450.2,-0.6084645432420075,-0.44262899551540613,-0.8860598327592015,-1.1283205,-0.28159809999999996,-0.009969332,1.162929316,1.1629721000000002,37.4263636,-122.1758449,3.9802200000000028
172,594450.4,-0.6280240081250668,-0.4325313465669751,-0.9078882820904255,-1.146791,-0.30353078,0.001812628,1.1862800759999999,1.1862814,37.4263615,-122.17584599999999,3.1566799999999944
173,594450.6,-0.6671692081727087,-0.4350742632523179,-0.9043918950483203,-1.1579912,-0.3353099,-0.018575625,1.205560572,1.2057037,37.4263595,-122.17584699999999,3.479919999999993
174,594450.8,-0.6886673294939101,-0.4244145043194294,-0.903929797001183,-1.1590983,-0.35918283,-0.020782612,1.213474839,1.2136527,37.42635739999999,-122.175848,3.0545100000000076
175,594451.0,-0.697413666639477,-0.4282436082139611,-0.9168685292825103,-1.1741736999999999,-0.36454684,-0.019191714,1.229462615,1.2296124,37.4263553,-122.1758491,3.8042000000000087
176,594451.2,-0.6832045540213585,-0.4012043857946992,-0.9329570098780096,-1.1684424,-0.3669188,0.014769788,1.224698734,1.2247878,37.4263533,-122.17585020000001,2.6269900000000064
177,594451.4,-0.6845044326037169,-0.4066215753555298,-0.9311454482376575,-1.1702111000000002,-0.36513429999999997,0.009477847,1.2258535879999999,1.2258903,37.426351200000006,-122.1758513,4.217514000000008
178,594451.6,-0.6887876796536148,-0.41670816391706467,-0.9248356646858156,-1.1717751,-0.36338845,-0.0029481240000000003,1.2268284790000001,1.226832,37.426349,-122.1758524,3.309129999999996
179,594451.8,-0.6926823193207383,-0.40569823049008846,-0.909131046384573,-1.1549003999999998,-0.37254792,-0.006738965,1.2135019040000001,1.2135206,37.4263467,-122.1758534,4.370476000000011
180,594452.0,-0.6788381957449019,-0.3914959328249097,-0.9076494011096656,-1.1419376,-0.36839294,0.007761456999999999,1.199889502,1.1999146,37.4263445,-122.1758544,2.9245799999999917
181,594452.2,-0.6845848122611642,-0.3975250218063593,-0.9058826947584748,-1.1454958,-0.37004640000000005,0.000205,1.203783623,1.2037836000000002,37.426342299999995,-122.1758555,3.3960950000000025
182,594452.4,-0.6678973943926394,-0.3942043958231807,-0.903388605453074,-1.1364063999999998,-0.35769013,0.007978182,1.191369678,1.1913964,37.4263402,-122.1758565,3.0775699999999944
183,594452.6,-0.6513249040581286,-0.3964075557887554,-0.8864695220254362,-1.1187403,-0.34248963,0.003223138,1.16999106,1.1699955,37.426338,-122.1758574,3.9739299999999957
184,594452.8,-0.6269552949815989,-0.38319077156484127,-0.8608377012424171,-1.0836996,-0.32890087,0.006835118,1.132510704,1.1325313,37.4263359,-122.17585859999998,2.778409999999994
185,594453.0,-0.6034955363720655,-0.3847332401201129,-0.8217480462044477,-1.0458583000000001,-0.30822268,-0.008037309,1.090330555,1.0903602,37.426333899999996,-122.1758595,2.7768299999999897
186,594453.2,-0.5677759777754545,-0.39357060845941305,-0.7825922067277133,-1.0077493,-0.2732829,-0.022668837,1.044146669,1.0443927,37.4263318,-122.1758605,3.3101800000000026
187,594453.4,-0.5337979858741164,-0.38952438812702894,-0.7714958591386676,-0.9858594999999999,-0.24667794,-0.012323909,1.016252412,1.0163271,37.4263299,-122.1758614,2.8512350000000026
188,594453.6,-0.4925456498749554,-0.37277385126799345,-0.7621094807982445,-0.95643824,-0.22068109,0.01067594,0.9815672540000001,0.9816253,37.4263279,-122.1758622,3.3987199999999973
189,594453.8,-0.4888440896756947,-0.35942417476326227,-0.722444174811244,-0.9168735999999998,-0.22465694,-0.0028918090000000004,0.943995733,0.9440001,37.4263261,-122.1758631,3.7738099999999974
190,594454.0,-0.46767291240394115,-0.3383113080635667,-0.6677394877187908,-0.8557184999999999,-0.21798019,-0.012993758999999999,0.883045605,0.8831412000000001,37.4263244,-122.17586370000001,3.831959999999995
191,594454.2,-0.45021178014576435,-0.31287306267768145,-0.6393397832289338,-0.81442875,-0.21674703,-0.005770565,0.842777221,0.8427969999999999,37.4263227,-122.17586440000001,2.9167249999999996
192,594454.4,-0.4501911108382046,-0.28928948380053043,-0.6286189509555697,-0.79377675,-0.22928818,0.0035748259999999997,0.826229157,0.8262369,37.426321200000004,-122.17586509999998,2.6898650000000117
193,594454.6,-0.4440219230018556,-0.27229203563183546,-0.6089642634615302,-0.76742816,-0.23311788,0.005663863000000001,0.8020535670000001,0.80207354,37.42631970000001,-122.17586570000002,3.8146739999999966
194,594454.8,-0.4343053186312318,-0.2581700412556529,-0.5908402279019356,-0.7426262,-0.23241375,0.008250514,0.778145113,0.7781888000000001,37.4263183,-122.1758664,2.47505000000001
195,594455.0,-0.4107042336836457,-0.22654059529304504,-0.5395210385322571,-0.67796344,-0.22928053,0.008302588,0.715684282,0.71573246,37.426317,-122.17586709999999,2.7836460000000045
196,594455.25,-0.25429140217602253,-0.1165331294760108,-0.3864563605748117,-0.44920072,-0.15547043,0.055367425,0.47534444600000003,0.47855815,37.4263156,-122.1758678,2.7459260000000114
197,594455.5,-0.12271673232316971,-0.10033341310918331,-0.12664812989532948,-0.19196318,-0.052729662999999996,-0.035999004,0.199073561,0.20230228,37.426314500000004,-122.1758685,3.0377500000000026
198,594455.75,-0.014955127611756325,-0.060240224935114384,0.0222570295445621,-0.018213194,0.01713159,-0.05397458,0.025004235,0.059485015,37.4263139,-122.17586899999999,2.943969999999993
199,594456.0,0.035305107943713665,-0.012131077237427235,0.07528757909312844,0.064913675,0.034053925,-0.032611556,0.073303855,0.08023072,37.4263137,-122.1758693,3.234740000000002
200,594456.1666666666,0.05937011865898967,0.025985462591052055,0.0597840347327292,0.079997435,0.034125336,0.012608244,0.08697199800000001,0.08788115,37.4263137,-122.17586940000001,4.05617500000001
201,594456.3333333334,0.04407155001536012,0.0434633893892169,0.07373508391901851,0.09511605,0.011869043000000001,0.009408118,0.095853726,0.09631432599999999,37.426313799999996,-122.1758693,3.446390000000008
202,594456.5,0.046054373029619455,0.032441130839288235,0.07114228373393416,0.08802881,0.019416878000000002,0.004413561,0.090144809,0.09025279,37.4263139,-122.1758693,3.572119999999998
203,594456.6666666666,0.04369740514084697,0.021944280713796616,0.05681962892413139,0.070492275,0.02301164,0.005065665,0.074153197,0.07432602,37.426314,-122.1758693,3.242590000000007
204,594456.8333333334,0.039697356056421995,0.014874747954308987,0.05406709061935544,0.06337523,0.023390563,0.000295,0.067553963,0.06755461,37.426314,-122.17586940000001,2.6448060000000027
205,594457.0,0.041264304891228676,0.0010646944865584373,0.04341796413064003,0.048321545,0.03207094,-0.0018531139999999999,0.057995833,0.05802543,37.4263141,-122.1758696,4.328575000000001
206,594457.2,0.05017628939822316,0.007559880614280701,0.032180335372686386,0.045622755,0.036155425,0.013111133999999998,0.058212118,0.059670365999999996,37.42631420000001,-122.17586979999999,3.7224700000000013
207,594457.4,0.03672349080443382,0.0009962422773241997,0.021467897575348616,0.029385498,0.028263958,0.009520633,0.040772035,0.041868857999999995,37.42631420000001,-122.17586990000001,3.123670000000004
208,594457.6,0.013197858352214098,-0.001133682206273079,0.010188351385295391,0.011718704,0.009485621,0.004995307,0.015076639,0.015882636999999998,37.4263143,-122.17587009999998,3.8602500000000077
209,594457.8,-0.011593655217438936,-0.008530352264642715,0.006644966080784798,-0.0029234770000000003,-0.0075595540000000004,-0.008307098,0.008105157,0.011606096000000002,37.426314399999995,-122.1758703,3.5501199999999926
210,594458.0,-0.039042568765580654,0.0028578713536262512,-0.02190485643222928,-0.028621052999999997,-0.03685727,0.00509086,0.046665009,0.04694188,37.426314399999995,-122.17587040000001,3.7816700000000054
211,594458.2,-0.04934952640905976,-0.006469624117016792,-0.03300800500437617,-0.045572232000000004,-0.040614236,0.001210371,0.061043792,0.06105579,37.426314500000004,-122.1758705,3.672709999999995
212,594458.4,-0.04824046045541763,-0.007544714026153088,-0.032468732446432114,-0.04533808,-0.039102998,0.000629,0.059871411,0.059874717,37.4263143,-122.1758709,3.674804999999992
213,594458.6,-0.037014474626630545,-0.010174613445997238,-0.032231207471340895,-0.042869184000000005,-0.028200637999999997,0.003464252,0.051313184000000005,0.05142999,37.42631420000001,-122.1758712,4.1928939999999955
214,594458.8,-0.017991212662309408,0.017293527722358704,-0.03256106423214078,-0.02284478,-0.026726213999999998,0.030172703999999998,0.035159273,0.04633105,37.426314,-122.17587169999999,3.4914500000000004
215,594459.0,-0.0023526116274297237,0.011773306876420975,0.001591548789292574,0.0064984809999999995,-0.010549787,0.012319528,0.012390652,0.017472807,37.4263139,-122.175872,3.484110000000001
216,594459.2,0.032870938535779715,0.025878427550196648,0.04824817320331931,0.06220534,0.011752908000000001,0.008340937,0.06330588599999999,0.063853,37.426313799999996,-122.1758723,3.749190000000013
217,594459.4,0.041274021845310926,0.013728649355471134,0.04323510779067874,0.054693896,0.0253354,0.006774453000000001,0.0602769,0.06065639,37.4263137,-122.17587240000002,3.5108299999999986
218,594459.6,0.1250415495596826,-0.07086206413805485,0.057016531471163034,0.04923417,0.14128383,-0.023036085,0.149616584,0.1513796,37.426313799999996,-122.1758727,3.288179999999997
219,594459.8,0.281250758562237,-0.166411348618567,-0.0007707960903644562,0.0047467379999999995,0.32438394,0.013917615,0.324418673,0.32471707,37.4263137,-122.1758729,3.5579760000000107
220,594460.0,0.451142571400851,-0.2893858402967453,-0.04306677868589759,-0.037118055,0.53366965,0.02880837,0.534958935,0.53573406,37.4263136,-122.1758729,2.573554999999999
221,594460.2,0.5979365073144436,-0.4144132947549224,-0.058314865455031395,-0.066034526,0.7244980999999999,0.016113155,0.727501252,0.72767967,37.4263135,-122.17587250000001,2.6374739999999974
222,594460.4,0.7416532984934747,-0.5425816951319575,-0.058867251966148615,-0.085892245,0.9143946,-0.008925822,0.918419845,0.91846323,37.4263134,-122.17587160000001,2.876909999999995
223,594460.6,0.8583400282077491,-0.6203983686864376,-0.05661413446068764,-0.08636861,1.0545992,-0.01325563,1.058129916,1.0582129999999998,37.4263133,-122.17586999999999,2.4132199999999955
224,594460.8,0.9715476501733065,-0.708784450776875,-0.07909541297703981,-0.113050304,1.1974874,-0.011128974,1.202811857,1.2028633,37.4263133,-122.1758679,3.8618239999999986
225,594461.0,1.0373541014268994,-0.7186874840408564,-0.10686699859797955,-0.11890164,1.2584608,0.02692134,1.264065288,1.2643520000000001,37.4263132,-122.1758656,3.5108299999999986
226,594461.2,1.0324909882619977,-0.7334529124200344,-0.07970387162640691,-0.1064998,1.2622073999999999,-0.001568317,1.26669243,1.2666935,37.4263132,-122.17586299999999,3.929400000000001
227,594461.4,0.9956224048510194,-0.7506151841953397,-0.06558840163052082,-0.116050534,1.2401403,-0.037274186,1.245558382,1.246116,37.4263132,-122.1758605,2.8549039999999906
228,594461.6,0.9625503476709127,-0.7193067418411374,-0.08098929328843951,-0.12287886,1.1954752,-0.020855606000000002,1.201773739,1.2019547,37.4263133,-122.1758578,3.03197999999999
229,594461.8,0.9178947084583342,-0.6822528839111328,-0.07395099895074964,-0.112680845,1.137946,-0.019110978,1.1435113209999999,1.1436709999999999,37.4263134,-122.1758548,2.8842500000000086
230,594462.0,0.8769493629224598,-0.6283830860629678,-0.07433612830936909,-0.09852701400000001,1.0746025,1.74e-05,1.0791098479999999,1.0791098999999997,37.4263135,-122.17585190000001,3.4222950000000054
231,594462.2,0.8201267523691058,-0.5947433253750205,-0.09252031473442912,-0.11405288,1.008593,0.009650705,1.0150211009999999,1.015067,37.4263134,-122.1758492,4.280379999999994
232,594462.4,0.7344864285551012,-0.6111100502312183,-0.17240085825324059,-0.2136239,0.9448209000000001,0.010980051000000001,0.9686700420000001,0.9687323,37.4263135,-122.1758466,2.7108199999999982
233,594462.6,0.6692181755788624,-0.5837982771918178,-0.21947068441659212,-0.25807726,0.8750325999999999,0.030343376000000002,0.912297068,0.91280156,37.4263133,-122.17584409999999,3.19701400000001
234,594462.8,0.5891745411790907,-0.5763672273606062,-0.250055490527302,-0.30444790000000005,0.80332494,0.020076463,0.859080594,0.85931516,37.4263131,-122.1758418,3.7250900000000087
235,594463.0,0.5235501411370933,-0.563825155608356,-0.26394523680210114,-0.33026475,0.7411003,0.009196439,0.811359632,0.81141174,37.426312599999996,-122.1758395,4.3584299999999985
236,594463.2,0.46552835823968053,-0.5735398326069117,-0.2767895036377013,-0.36423990000000006,0.69716275,-0.014064221000000002,0.786579039,0.7867048000000001,37.4263123,-122.1758376,3.20277999999999
237,594463.4,0.443382466211915,-0.5676528746262193,-0.2779642855748534,-0.3693117,0.67528313,-0.018758471999999998,0.76967422,0.76990277,37.42631179999999,-122.17583590000002,3.3573299999999904
238,594463.6,0.44978731870651245,-0.5310289897024632,-0.2987872497178614,-0.36493552,0.6612015,0.021222569,0.755225337,0.75552344,37.426311299999995,-122.17583400000001,4.555390000000003
239,594463.8,0.46630059089511633,-0.5030412785708904,-0.27357853669673204,-0.32517514,0.66027474,0.031697903,0.736003814,0.73668605,37.4263109,-122.1758321,3.034080000000003
240,594464.0,0.4586338340304792,-0.4797164676710963,-0.23207953665405512,-0.2827022,0.6413646,0.018913186999999998,0.70090588,0.7011609999999999,37.4263105,-122.17583020000001,3.535970000000006
241,594464.25,0.45408353582024574,-0.48157530557364225,-0.22488904418423772,-0.27942082,0.6385029999999999,0.011369483,0.6969663690000001,0.6970590999999999,37.4263105,-122.17583020000001,3.7209000000000003
242,594464.5,0.47083811881020665,-0.4381710011512041,-0.1680905632674694,-0.20656547,0.6295708999999999,0.013110945,0.662592506,0.66272223,37.4263096,-122.175825,3.6035540000000026
243,594464.75,0.48079124791547656,-0.4246582295745611,-0.14579745242372155,-0.17868955,0.63079965,0.012854388999999999,0.655620455,0.65574646,37.4263092,-122.17582340000001,3.6187439999999924
244,594465.0,0.47676089126616716,-0.42805553786456585,-0.1457063015550375,-0.18166912,0.6291974,0.008811031,0.654899274,0.65495855,37.426309100000005,-122.1758218,3.323279999999997
245,594465.2,0.42997842747718096,-0.44597741682082415,-0.1871991353109479,-0.23897946,0.5991435,0.002197714,0.645045821,0.6450496,37.426309,-122.1758202,2.9209100000000063
246,594465.4,0.4126803367398679,-0.4400178696960211,-0.2288191425614059,-0.2745639,0.5813285,0.024182675,0.6429060360000001,0.6433607,37.4263086,-122.1758187,3.9184000000000054
247,594465.6,0.39339069509878755,-0.4474382810294628,-0.2351675950922072,-0.28966529999999996,0.56895286,0.014895755,0.638446033,0.6386198000000001,37.426308399999996,-122.1758172,3.832490000000007
248,594465.8,0.37693065078929067,-0.4372769147157669,-0.24295514030382037,-0.2959496,0.54960966,0.019497981,0.624225065,0.6245295,37.426308,-122.17581580000001,2.968590000000006
249,594466.0,0.3732270924374461,-0.44134327583014965,-0.2523086881265044,-0.30666792,0.5486403,0.020883063,0.6285311610000001,0.6288779999999999,37.4263077,-122.17581440000001,3.2143000000000086
250,594466.25,0.3424827069975436,-0.42880584485828876,-0.26363861095160246,-0.31916597,0.51594126,0.023194576,0.606681397,0.6071246,37.4263074,-122.17581299999999,4.040985000000006
251,594466.5,0.33674502931535244,-0.4271014155820012,-0.262880795635283,-0.3195443,0.51017714,0.021453284,0.601987763,0.6023699,37.4263074,-122.17581299999999,3.309129999999996
252,594466.75,0.2883374956436455,-0.4062794242054224,-0.24257810041308403,-0.30837659999999995,0.45811599999999997,0.0026393470000000002,0.5522376210000001,0.55224395,37.4263065,-122.1758104,3.5532599999999945
253,594467.0,0.27408497873693705,-0.3943256353959441,-0.23164056474342942,-0.29815423,0.43968679999999993,-0.002000129,0.531244222,0.5312479999999999,37.426306,-122.17580900000002,3.753379999999993
254,594467.1666666666,0.24876552307978272,-0.3583753192797303,-0.20545643148943782,-0.2670617,0.39911178,-0.004455977,0.480220948,0.48024163,37.4263055,-122.1758078,3.332183999999998
255,594467.3333333334,0.22387083293870091,-0.31903019919991493,-0.18341304874047637,-0.23737370000000002,0.35708850000000003,-0.001933795,0.428787207,0.42879158,37.4263051,-122.17580670000001,4.2353299999999905
256,594467.5,0.21670321514829993,-0.2935583349317312,-0.18728428473696113,-0.22966477,0.33745749999999997,0.014509237,0.408195386,0.40845317,37.4263047,-122.17580579999999,1.8861160000000012
257,594467.6666666666,0.1985164205543697,-0.2659501004964113,-0.16866093641147017,-0.20655936,0.30736199999999997,0.014057438,0.370321695,0.3705884,37.4263043,-122.17580490000002,2.946070000000006
258,594467.8333333334,0.19171983748674393,-0.26626979280263186,-0.14776567975059152,-0.19232979999999997,0.30177948,-0.001730614,0.357856965,0.35786116,37.4263041,-122.17580430000001,3.771709999999999
259,594468.0,0.2091486044228077,-0.2796800248324871,-0.13389560719951987,-0.18257289,0.32367270000000004,-0.011803586000000001,0.37161389100000003,0.37180132,37.42630379999999,-122.1758037,3.340040000000002
260,594468.2,0.24697569478303194,-0.29001331701874733,-0.1368979481048882,-0.17803054,0.36119294,-0.0009279999999999999,0.402685002,0.4026861,37.426303499999996,-122.175803,3.5579760000000107
261,594468.4,0.2921401737257838,-0.2932902267202735,-0.13273237692192197,-0.16179144,0.40116605,0.01343732,0.4325629,0.43277156,37.4263033,-122.1758022,3.5066400000000044
262,594468.6,0.3491543550044298,-0.3284550867974758,-0.12495331512764096,-0.15525115,0.46814984,0.009183553,0.49322122700000004,0.49330673,37.4263031,-122.1758014,3.7664800000000014
263,594468.8,0.39676670217886567,-0.37167334370315075,-0.1308692144230008,-0.16677195,0.5314643,0.003863632,0.557016293,0.5570297,37.426303000000004,-122.1758005,3.0314599999999956
264,594469.0,0.449531652033329,-0.42782937083393335,-0.15122653963044286,-0.19474888,0.6060296,0.0008029999999999999,0.63655245,0.6365529999999999,37.426302899999996,-122.17579939999999,2.7794600000000003
265,594469.2,0.5008970680646598,-0.4729973692446947,-0.16766889905557036,-0.21441743,0.673559,0.002157046,0.7068638890000001,0.70686716,37.4263026,-122.1757982,3.135719999999992
266,594469.4,0.5547023229300976,-0.5141494777053595,-0.17714037746191025,-0.22569476,0.741015,0.003005722,0.7746233859999999,0.77462924,37.426302500000006,-122.17579690000001,3.436959999999999
267,594469.6,0.613145143724978,-0.5453076660633087,-0.17487306613475084,-0.22100812,0.8070744000000001,0.005399007,0.836787745,0.83680516,37.4263022,-122.1757953,3.0754699999999957
268,594469.8,0.6635739901103079,-0.5874879090115428,-0.17405882803723216,-0.22573882,0.87222004,-0.002122325,0.9009582979999999,0.9009608,37.4263018,-122.17579340000002,3.39452
269,594470.0,0.7067040684632957,-0.6050318060442805,-0.18522586300969124,-0.22967328,0.9180686,0.011111128,0.946361307,0.9464265,37.4263015,-122.1757915,3.1682050000000004
270,594470.2,0.7009670329280198,-0.6288579972460866,-0.19374821055680513,-0.2505542,0.9259004999999999,-0.002150843,0.959202355,0.9592048000000001,37.426301099999996,-122.17578940000001,4.045169999999999
271,594470.4,0.7003774899058044,-0.6419868692755699,-0.21731818793341517,-0.27621627,0.93239284,0.003099524,0.972446312,0.97245127,37.4263008,-122.1757873,3.945114000000004
272,594470.6,0.6668774909339845,-0.6331253908574581,-0.23315193690359592,-0.2950737,0.8993189,0.004512027,0.946489783,0.94650054,37.4263005,-122.17578519999999,4.1127500000000055
273,594470.8,0.6483288775198162,-0.6273430539295077,-0.24321072362363338,-0.3060902,0.8805398000000001,0.0066679009999999995,0.932223955,0.9322478000000001,37.4263001,-122.1757832,2.9581150000000065
274,594471.0,0.6286418763920665,-0.6166860396042466,-0.22240209532901645,-0.29045472,0.8582013000000001,-0.007140508,0.906020662,0.9060488000000001,37.4262997,-122.175781,3.2661700000000025
275,594471.2,0.5903324671089649,-0.5877381777390838,-0.25742271170020103,-0.315773,0.81036025,0.017400311,0.8697104999999999,0.86988455,37.4262994,-122.1757791,3.1823499999999996
276,594471.4,0.5455493982881308,-0.5910348240286112,-0.25245806109160185,-0.32801953,0.7742104999999999,-0.006771096999999999,0.840832151,0.8408594000000001,37.4262989,-122.17577720000001,3.925210000000007
277,594471.6,0.48747230414301157,-0.5975906625390053,-0.2602389142848551,-0.35636663,0.728544,-0.03100913,0.8110324000000001,0.81162494,37.4262986,-122.17577539999999,3.4170500000000033
278,594471.8,0.4903938393108547,-0.5918147955089808,-0.2992756706662476,-0.38345036,0.7279411,-0.002166931,0.8227590140000001,0.8227619,37.426298100000004,-122.17577379999999,3.6648500000000013
279,594472.0,0.4685644335113466,-0.5736445356160402,-0.3488500905223191,-0.42053688,0.6997883,0.030943705,0.816428116,0.8170143,37.426297600000005,-122.175772,4.120605999999995
280,594472.2,0.46624090149998665,-0.6038851449266076,-0.3609863999299705,-0.44648266,0.71392524,0.017010052,0.842042785,0.8422146,37.426297,-122.1757703,3.436959999999999
281,594472.4,0.45889747934415936,-0.6124872760847211,-0.37007035687565804,-0.46049809999999997,0.7122904,0.013643226000000001,0.848183991,0.8482937,37.4262963,-122.17576869999999,3.7874300000000005
282,594472.6,0.4601300465874374,-0.6354065304622054,-0.36431538965553045,-0.46731880000000003,0.72553855,-0.004738712,0.8630139379999999,0.863027,37.426295700000004,-122.1757672,3.1755400000000122
283,594472.8,0.48597460333257914,-0.6349338125437498,-0.3701724521815777,-0.46336275,0.74716216,0.010068006,0.879179374,0.87923706,37.4262948,-122.17576559999999,3.846109999999996
284,594473.0,0.5014382326044142,-0.6228844597935677,-0.3683010586537421,-0.4506738,0.7538344,0.023569287999999997,0.878278551,0.87859476,37.4262941,-122.17576389999999,3.1351999999999975
285,594473.2,0.4798389319330454,-0.6350521054118872,-0.3644521893002093,-0.46086666,0.7420318,0.003917331,0.8735040409999999,0.8735128000000001,37.4262934,-122.17576229999999,3.2530750000000097
286,594473.4,0.486590544693172,-0.626285676844418,-0.3604152025654912,-0.45096620000000004,0.74307823,0.010211588,0.8692156129999999,0.86927557,37.426292600000004,-122.17576070000001,3.75967
287,594473.6,0.4959985348396003,-0.6267064390704036,-0.33531869063153863,-0.42820793,0.7512654000000001,-0.0013449520000000002,0.86473217,0.8647332,37.4262919,-122.17575900000001,3.7507599999999996
288,594473.8,0.5193044347688556,-0.6133191138505936,-0.333023255225271,-0.41195595,0.763863,0.016114375,0.867867761,0.8680174,37.4262912,-122.17575729999999,3.935159999999996
289,594474.0,0.5251321438699961,-0.631518573500216,-0.3605205034837127,-0.4412683,0.7784871999999999,0.023057006,0.89485196,0.89514893,37.4262907,-122.1757555,2.8376160000000112
290,594474.2,0.4926826045848429,-0.6574838301166892,-0.3720462848432362,-0.47427976,0.7648482,-0.001113885,0.8999633440000001,0.89996403,37.42629,-122.1757538,3.187065000000004
291,594474.4,0.5087769562378526,-0.6759548531845212,-0.35628316132351756,-0.46605468,0.7883069,-0.016303368000000002,0.91577002,0.91591513,37.42628920000001,-122.1757521,3.8408660000000054
292,594474.6,0.5628672186285257,-0.6772420257329941,-0.3349925731308758,-0.43230382,0.8347754000000001,-0.007233616,0.9400726309999999,0.9401004999999999,37.4262885,-122.17575049999999,3.586266000000009
293,594474.8,0.6366364089772105,-0.6693234154954553,-0.3114822255447507,-0.3856859,0.8929983,0.014996941000000001,0.9727278840000001,0.97284347,37.4262878,-122.1757486,3.8707299999999947
294,594475.0,0.6963124903850257,-0.6762234149500728,-0.2907733600586653,-0.35347652,0.94718367,0.02300964,1.010990897,1.0112526,37.426287200000004,-122.1757466,3.3908539999999903
295,594475.2,0.7135789399035275,-0.7058310760185122,-0.27984066447243094,-0.35443687,0.9775649,0.003765775,1.039835821,1.0398425999999998,37.426286700000006,-122.1757446,2.970160000000007
296,594475.4,0.741110656876117,-0.7388565596193075,-0.25732614006847143,-0.34463567,1.0184549,-0.020473164,1.075185611,1.0753806000000001,37.426286299999994,-122.1757425,3.066040000000001
297,594475.6,0.7595915170386434,-0.7555806189775467,-0.2820350914262235,-0.3668798,1.0430033,-0.008882506,1.105647635,1.1056833000000001,37.426285799999995,-122.17574029999999,2.2518500000000046
298,594475.8,0.7644808595068753,-0.7560229795053601,-0.29943182598799467,-0.37934032,1.0473773000000002,0.0034605609999999996,1.11395618,1.1139616,37.4262854,-122.175738,4.123229999999992
299,594476.0,0.7608926105313003,-0.7464106287807226,-0.29896036395803094,-0.37518254,1.0392214,0.008117734,1.104872418,1.1049023,37.4262849,-122.1757357,2.2817150000000055
300,594476.2,0.7542746751569211,-0.7462882846593857,-0.2844770709052682,-0.36575973,1.0335546999999998,-0.003400815,1.096364629,1.0963698999999998,37.426284499999994,-122.17573329999999,3.4322400000000073
301,594476.4,0.7334842053242028,-0.7221178822219372,-0.2992367292754352,-0.37177595,1.0030861,0.013023831999999999,1.0697658840000002,1.0698451999999998,37.426284,-122.175731,3.111620000000002
302,594476.6,0.7246004128828645,-0.716642402112484,-0.2684082412160933,-0.3473525,0.9926509,-0.005788398,1.0516699109999998,1.0516858,37.426283500000004,-122.17572870000001,3.831959999999995
303,594476.8,0.728053237311542,-0.6982979970052838,-0.24284931225702167,-0.31650138,0.98580474,-0.007530964,1.035366685,1.0353941,37.426283000000005,-122.1757267,3.264595
304,594477.0,0.7153815291821957,-0.6745799379423261,-0.24588596913963556,-0.31081316,0.9624488999999999,0.004898384,1.011391428,1.0114033000000002,37.4262826,-122.17572460000001,3.5370260000000115
305,594477.2,0.7172775035724044,-0.6773195900022984,-0.2606426593847573,-0.32332763,0.9655126,0.012826947,1.018211826,1.0182927,37.426282,-122.17572240000001,2.679390000000012
306,594477.4,0.7012094585224986,-0.6509917080402374,-0.25051745492964983,-0.3069438,0.93789226,0.017575225,0.986841623,0.9869981,37.426281599999996,-122.17572040000002,3.352090000000004
307,594477.6,0.6769660455174744,-0.6448038825765252,-0.23619054025039077,-0.30022925,0.91407704,0.002775128,0.962119763,0.96212375,37.426281200000005,-122.1757182,2.1423400000000044
308,594477.8,0.660451109521091,-0.6510994546115398,-0.22686012461781502,-0.30140293,0.90345097,-0.014111053,0.952400839,0.95250535,37.426280799999994,-122.17571609999999,3.1530099999999948
309,594478.0,0.6480802623555064,-0.6488328725099564,-0.22702033957466483,-0.30436784,0.89177305,-0.01772165,0.942283918,0.9424505,37.426280299999995,-122.17571409999998,2.292190000000005
310,594478.2,0.6603199350647628,-0.6320338640362024,-0.2139679891988635,-0.28139985,0.8931872,-0.009186327,0.93646641,0.93651146,37.4262799,-122.17571219999999,3.3348000000000013
311,594478.4,0.6698429035022855,-0.6257213316857815,-0.2255980046465993,-0.28430647,0.8978860999999999,0.006151996,0.9418224820000001,0.94184256,37.4262795,-122.1757101,2.485529999999997
312,594478.6,0.6675386177375913,-0.6260270364582539,-0.22817326476797462,-0.28725457,0.8960985,0.006537151999999999,0.9410141879999999,0.9410369000000001,37.4262791,-122.17570790000002,3.047700000000006
313,594478.8,0.6592423114925623,-0.6402662508189678,-0.2174730976112187,-0.28876692,0.89665896,-0.013045396,0.942010393,0.9421007,37.426278700000005,-122.17570590000001,3.414439999999999
314,594479.0,0.6412485945038497,-0.6465408271178603,-0.21245941193774343,-0.29383644,0.88477004,-0.027919358,0.9322863570000001,0.9327042999999999,37.4262784,-122.17570390000002,3.269843999999992
