# 
# Header Description:
# 
# Version: v2.0.0.1 Platform: 10 Manufacturer: Google Model: Pixel 3 XL
# 
# Raw,ElapsedRealtimeMillis,TimeNanos,LeapSecond,TimeUncertaintyNanos,FullBiasNanos,BiasNanos,BiasUncertaintyNanos,DriftNanosPerSecond,DriftUncertaintyNanosPerSecond,HardwareClockDiscontinuityCount,Svid,TimeOffsetNanos,State,ReceivedSvTimeNanos,ReceivedSvTimeUncertaintyNanos,Cn0DbHz,PseudorangeRateMetersPerSecond,PseudorangeRateUncertaintyMetersPerSecond,AccumulatedDeltaRangeState,AccumulatedDeltaRangeMeters,AccumulatedDeltaRangeUncertaintyMeters,CarrierFrequencyHz,CarrierCycles,CarrierPhase,CarrierPhaseUncertainty,MultipathIndicator,SnrInDb,ConstellationType,AgcDb,CarrierFrequencyHz
# 
# Fix,Provider,Latitude,Longitude,Altitude,Speed,Accuracy,(UTC)TimeInMs
# 
# Nav,Svid,Type,Status,MessageId,Sub-messageId,Data(Bytes)
# 
Fix,gps,37.426536,-122.175789,1.245148,0.000000,3.216000,1581800799000
Raw,845248,867166000000,,,-1265835149279747581,0.7995662689208984,25.40882815083023,6.791976592148859,9.605170286032031,0,6,0.0,207,398379640703,96,15.5,-1.0119576454162598,2.305000066757202,16,0.0,0.0,1.59975002E9,,,,0,,3,1.48,1.59975002E9
Raw,845248,867166000000,,,-1265835149279747581,0.7995662689208984,25.40882815083023,6.791976592148859,9.605170286032031,0,18,0.0,207,398368442914,70,17.6,-664.3602905273438,1.378499984741211,16,0.0,0.0,1.60031245E9,,,,0,,3,1.48,1.60031245E9
Raw,845248,867166000000,,,-1265835149279747581,0.7995662689208984,25.40882815083023,6.791976592148859,9.605170286032031,0,9,0.0,207,398368363988,24,25.4,-492.3153076171875,0.5938000082969666,16,0.0,0.0,1.60087501E9,,,,0,,3,1.48,1.60087501E9
Raw,845248,867166000000,,,-1265835149279747581,0.7995662689208984,25.40882815083023,6.791976592148859,9.605170286032031,0,16,0.0,207,398379481080,93,15.9,-3.116914749145508,1.5850000381469727,16,0.0,0.0,1.60143744E9,,,,0,,3,1.48,1.60143744E9
Raw,845248,867166000000,,,-1265835149279747581,0.7995662689208984,25.40882815083023,6.791976592148859,9.605170286032031,0,15,0.0,207,398373855302,17,28.9,477.2066345214844,0.25280001759529114,16,0.0,0.0,1.602E9,,,,0,,3,1.48,1.602E9
Raw,845248,867166000000,,,-1265835149279747581,0.7995662689208984,25.40882815083023,6.791976592148859,9.605170286032031,0,5,0.0,207,398374351829,27,24.3,744.9060668945312,0.887499988079071,16,0.0,0.0,1.60256256E9,,,,0,,3,1.48,1.60256256E9
Raw,845248,867166000000,,,-1265835149279747581,0.7995662689208984,25.40882815083023,6.791976592148859,9.605170286032031,0,17,0.0,207,398370856742,21,26.5,-229.18165588378906,0.326200008392334,16,0.0,0.0,1.60424998E9,,,,0,,3,1.48,1.60424998E9
Raw,845248,867166000000,,,-1265835149279747581,0.7995662689208984,25.40882815083023,6.791976592148859,9.605170286032031,0,7,0.0,207,398370265947,6,38.8,-648.7245483398438,0.23510000109672546,16,0.0,0.0,1.60481254E9,,,,0,,3,1.48,1.60481254E9
Raw,845248,867166000000,,,-1265835149279747581,0.7995662689208984,25.40882815083023,6.791976592148859,9.605170286032031,0,4,0.0,15,594416364753719,17,28.6,676.6018676757812,0.03930000215768814,16,0.0,0.0,1.57542003E9,,,,0,,1,0.31,1.57542003E9
Raw,845248,867166000000,,,-1265835149279747581,0.7995662689208984,25.40882815083023,6.791976592148859,9.605170286032031,0,5,0.0,15,594416367397018,9,35.8,42.79708480834961,0.03210000321269035,16,0.0,0.0,1.57542003E9,,,,0,,1,0.31,1.57542003E9
Raw,845248,867166000000,,,-1265835149279747581,0.7995662689208984,25.40882815083023,6.791976592148859,9.605170286032031,0,7,0.0,15,594416376272975,21,26.4,5.082680702209473,0.13520000874996185,16,0.0,0.0,1.57542003E9,,,,0,,1,0.31,1.57542003E9
Raw,845248,867166000000,,,-1265835149279747581,0.7995662689208984,25.40882815083023,6.791976592148859,9.605170286032031,0,8,0.0,15,594416371756185,11,33.8,118.63107299804688,0.039400000125169754,16,0.0,0.0,1.57542003E9,,,,0,,1,0.31,1.57542003E9
Raw,845249,867166000000,,,-1265835149279747581,0.7995662689208984,25.40882815083023,6.791976592148859,9.605170286032031,0,9,0.0,15,594416373434667,11,33.3,517.5510864257812,0.04240000247955322,16,0.0,0.0,1.57542003E9,,,,0,,1,0.31,1.57542003E9
Raw,845249,867166000000,,,-1265835149279747581,0.7995662689208984,25.40882815083023,6.791976592148859,9.605170286032031,0,11,0.0,15,594416363886125,35,22.7,-432.4233703613281,0.7310000061988831,16,0.0,0.0,1.57542003E9,,,,0,,1,0.31,1.57542003E9
Raw,845249,867166000000,,,-1265835149279747581,0.7995662689208984,25.40882815083023,6.791976592148859,9.605170286032031,0,13,0.0,15,594416362818834,24,25.7,-669.0623779296875,0.384799987077713,16,0.0,0.0,1.57542003E9,,,,0,,1,0.31,1.57542003E9
Raw,845249,867166000000,,,-1265835149279747581,0.7995662689208984,25.40882815083023,6.791976592148859,9.605170286032031,0,23,0.0,15,594416367126286,10,34.7,656.8672485351562,0.032600000500679016,16,0.0,0.0,1.57542003E9,,,,0,,1,0.31,1.57542003E9
Raw,845249,867166000000,,,-1265835149279747581,0.7995662689208984,25.40882815083023,6.791976592148859,9.605170286032031,0,27,0.0,15,594416365668463,46,20.6,456.4955139160156,0.8539999723434448,16,0.0,0.0,1.57542003E9,,,,0,,1,0.31,1.57542003E9
Raw,845249,867166000000,,,-1265835149279747581,0.7995662689208984,25.40882815083023,6.791976592148859,9.605170286032031,0,28,0.0,15,594416373274207,10,34.4,-423.71337890625,0.041600000113248825,16,0.0,0.0,1.57542003E9,,,,0,,1,0.31,1.57542003E9
Raw,845249,867166000000,,,-1265835149279747581,0.7995662689208984,25.40882815083023,6.791976592148859,9.605170286032031,0,30,0.0,15,594416374992896,12,32.1,-270.6112060546875,0.04490000009536743,16,0.0,0.0,1.57542003E9,,,,0,,1,0.31,1.57542003E9
Raw,845249,867166000000,,,-1265835149279747581,0.7995662689208984,25.40882815083023,6.791976592148859,9.605170286032031,0,3,0.0,7183,594416362301520,10,34.9,-292.3835754394531,0.04910000041127205,16,0.0,0.0,1.57542003E9,,,,0,,6,0.38,1.57542003E9
Raw,845249,867166000000,,,-1265835149279747581,0.7995662689208984,25.40882815083023,6.791976592148859,9.605170286032031,0,5,0.0,7183,594416366327772,35,22.9,235.21249389648438,0.643500030040741,16,0.0,0.0,1.57542003E9,,,,0,,6,0.38,1.57542003E9
Raw,845249,867166000000,,,-1265835149279747581,0.7995662689208984,25.40882815083023,6.791976592148859,9.605170286032031,0,9,0.0,7183,594416363179049,14,30.9,570.546630859375,0.04830000177025795,16,0.0,0.0,1.57542003E9,,,,0,,6,0.38,1.57542003E9
Raw,845249,867166000000,,,-1265835149279747581,0.7995662689208984,25.40882815083023,6.791976592148859,9.605170286032031,0,12,0.0,7183,594416358280517,19,27.1,-411.3260498046875,0.06830000132322311,16,0.0,0.0,1.57542003E9,,,,0,,6,0.38,1.57542003E9
Raw,845249,867166000000,,,-1265835149279747581,0.7995662689208984,25.40882815083023,6.791976592148859,9.605170286032031,0,24,0.0,7183,594416371924353,40,21.7,232.56741333007812,0.6889999508857727,16,0.0,0.0,1.57542003E9,,,,0,,6,0.38,1.57542003E9
Raw,845249,867166000000,,,-1265835149279747581,0.7995662689208984,25.40882815083023,6.791976592148859,9.605170286032031,0,25,0.0,7183,594416364521756,19,27.6,-200.15989685058594,0.06530000269412994,16,0.0,0.0,1.57542003E9,,,,0,,6,0.38,1.57542003E9
Raw,845250,867166000000,,,-1265835149279747581,0.7995662689208984,25.40882815083023,6.791976592148859,9.605170286032031,0,31,0.0,7183,594416353722137,21,26.7,456.41583251953125,0.13670000433921814,16,0.0,0.0,1.57542003E9,,,,0,,6,0.38,1.57542003E9
Fix,gps,37.426537,-122.175789,1.261780,0.000000,3.216000,1581800800000
Raw,846264,868166000000,,,-1265835149279747569,0.4224720001220703,24.778117222012952,8.370133362520962,9.700837551131954,0,6,0.0,207,399379640573,92,15.7,-1.058807611465454,1.5550000667572021,16,0.0,0.0,1.59975002E9,,,,0,,3,1.42,1.59975002E9
Raw,846265,868166000000,,,-1265835149279747569,0.4224720001220703,24.778117222012952,8.370133362520962,9.700837551131954,0,18,0.0,207,399368445247,53,19.1,-665.680908203125,1.2085000276565552,16,0.0,0.0,1.60031245E9,,,,0,,3,1.42,1.60031245E9
Raw,846265,868166000000,,,-1265835149279747569,0.4224720001220703,24.778117222012952,8.370133362520962,9.700837551131954,0,9,0.0,207,399368365703,21,26.7,-494.7073059082031,0.323199987411499,16,0.0,0.0,1.60087501E9,,,,0,,3,1.42,1.60087501E9
Raw,846265,868166000000,,,-1265835149279747569,0.4224720001220703,24.778117222012952,8.370133362520962,9.700837551131954,0,16,0.0,207,399379480958,46,20.1,-6.683115005493164,1.1449999809265137,16,0.0,0.0,1.60143744E9,,,,0,,3,1.42,1.60143744E9
Raw,846266,868166000000,,,-1265835149279747569,0.4224720001220703,24.778117222012952,8.370133362520962,9.700837551131954,0,15,0.0,207,399373853691,11,33.7,474.7037048339844,0.24240000545978546,16,0.0,0.0,1.602E9,,,,0,,3,1.42,1.602E9
Raw,846266,868166000000,,,-1265835149279747569,0.4224720001220703,24.778117222012952,8.370133362520962,9.700837551131954,0,5,0.0,207,399374349400,24,25.6,743.1499633789062,0.6028000116348267,16,0.0,0.0,1.60256256E9,,,,0,,3,1.42,1.60256256E9
Raw,846266,868166000000,,,-1265835149279747569,0.4224720001220703,24.778117222012952,8.370133362520962,9.700837551131954,0,17,0.0,207,399370857506,16,29.7,-231.54837036132812,0.24169999361038208,16,0.0,0.0,1.60424998E9,,,,0,,3,1.42,1.60424998E9
Raw,846266,868166000000,,,-1265835149279747569,0.4224720001220703,24.778117222012952,8.370133362520962,9.700837551131954,0,7,0.0,207,399370268124,7,37.9,-651.1860961914062,0.23559999465942383,16,0.0,0.0,1.60481254E9,,,,0,,3,1.42,1.60481254E9
Raw,846266,868166000000,,,-1265835149279747569,0.4224720001220703,24.778117222012952,8.370133362520962,9.700837551131954,0,4,0.0,15,594417364751484,17,28.3,673.5064086914062,0.5024999976158142,16,0.0,0.0,1.57542003E9,,,,0,,1,0.28,1.57542003E9
Raw,846266,868166000000,,,-1265835149279747569,0.4224720001220703,24.778117222012952,8.370133362520962,9.700837551131954,0,5,0.0,15,594417367396875,9,35.8,40.38959884643555,0.03210000321269035,16,0.0,0.0,1.57542003E9,,,,0,,1,0.28,1.57542003E9
Raw,846267,868166000000,,,-1265835149279747569,0.4224720001220703,24.778117222012952,8.370133362520962,9.700837551131954,0,7,0.0,15,594417376273003,17,28.8,2.3786709308624268,0.4805000126361847,16,0.0,0.0,1.57542003E9,,,,0,,1,0.28,1.57542003E9
Raw,846267,868166000000,,,-1265835149279747569,0.4224720001220703,24.778117222012952,8.370133362520962,9.700837551131954,0,8,0.0,15,594417371755795,12,32.8,116.32624053955078,0.040400002151727676,16,0.0,0.0,1.57542003E9,,,,0,,1,0.28,1.57542003E9
Raw,846267,868166000000,,,-1265835149279747569,0.4224720001220703,24.778117222012952,8.370133362520962,9.700837551131954,0,9,0.0,15,594417373432943,12,32.9,515.015869140625,0.04340000078082085,16,0.0,0.0,1.57542003E9,,,,0,,1,0.28,1.57542003E9
Raw,846267,868166000000,,,-1265835149279747569,0.4224720001220703,24.778117222012952,8.370133362520962,9.700837551131954,0,11,0.0,15,594417363887583,21,26.5,-434.2085266113281,0.11569999903440475,16,0.0,0.0,1.57542003E9,,,,0,,1,0.28,1.57542003E9
Raw,846267,868166000000,,,-1265835149279747569,0.4224720001220703,24.778117222012952,8.370133362520962,9.700837551131954,0,13,0.0,15,594417362821090,21,26.7,-671.9459838867188,0.5295000076293945,16,0.0,0.0,1.57542003E9,,,,0,,1,0.28,1.57542003E9
Raw,846268,868166000000,,,-1265835149279747569,0.4224720001220703,24.778117222012952,8.370133362520962,9.700837551131954,0,23,0.0,15,594417367124108,9,35.1,654.4039306640625,0.03210000321269035,16,0.0,0.0,1.57542003E9,,,,0,,1,0.28,1.57542003E9
Raw,846268,868166000000,,,-1265835149279747569,0.4224720001220703,24.778117222012952,8.370133362520962,9.700837551131954,0,27,0.0,15,594417365666940,16,29.8,453.1513366699219,0.03420000150799751,16,0.0,0.0,1.57542003E9,,,,0,,1,0.28,1.57542003E9
Raw,846268,868166000000,,,-1265835149279747569,0.4224720001220703,24.778117222012952,8.370133362520962,9.700837551131954,0,28,0.0,15,594417373275640,11,33.1,-426.26910400390625,0.04240000247955322,16,0.0,0.0,1.57542003E9,,,,0,,1,0.28,1.57542003E9
Raw,846268,868166000000,,,-1265835149279747569,0.4224720001220703,24.778117222012952,8.370133362520962,9.700837551131954,0,30,0.0,15,594417374993807,12,32.9,-273.1781005859375,0.04490000009536743,16,0.0,0.0,1.57542003E9,,,,0,,1,0.28,1.57542003E9
Raw,846268,868166000000,,,-1265835149279747569,0.4224720001220703,24.778117222012952,8.370133362520962,9.700837551131954,0,3,0.0,7183,594417362302504,10,34.0,-294.86431884765625,0.04910000041127205,16,0.0,0.0,1.57542003E9,,,,0,,6,0.38,1.57542003E9
Raw,846269,868166000000,,,-1265835149279747569,0.4224720001220703,24.778117222012952,8.370133362520962,9.700837551131954,0,5,0.0,7183,594417366327042,53,19.9,233.09071350097656,0.8134999871253967,16,0.0,0.0,1.57542003E9,,,,0,,6,0.38,1.57542003E9
Raw,846269,868166000000,,,-1265835149279747569,0.4224720001220703,24.778117222012952,8.370133362520962,9.700837551131954,0,9,0.0,7183,594417363177152,14,30.1,568.0132446289062,0.04830000177025795,16,0.0,0.0,1.57542003E9,,,,0,,6,0.38,1.57542003E9
Raw,846269,868166000000,,,-1265835149279747569,0.4224720001220703,24.778117222012952,8.370133362520962,9.700837551131954,0,12,0.0,7183,594417358281885,27,24.1,-414.10760498046875,0.5534999966621399,16,0.0,0.0,1.57542003E9,,,,0,,6,0.38,1.57542003E9
Raw,846269,868166000000,,,-1265835149279747569,0.4224720001220703,24.778117222012952,8.370133362520962,9.700837551131954,0,24,0.0,7183,594417371923655,31,23.5,229.4275665283203,0.5989999771118164,16,0.0,0.0,1.57542003E9,,,,0,,6,0.38,1.57542003E9
Raw,846269,868166000000,,,-1265835149279747569,0.4224720001220703,24.778117222012952,8.370133362520962,9.700837551131954,0,25,0.0,7183,594417364522421,16,29.1,-202.76390075683594,0.050700001418590546,16,0.0,0.0,1.57542003E9,,,,0,,6,0.38,1.57542003E9
Raw,846269,868166000000,,,-1265835149279747569,0.4224720001220703,24.778117222012952,8.370133362520962,9.700837551131954,0,31,0.0,7183,594417353720627,24,25.0,453.8502502441406,0.4072999954223633,16,0.0,0.0,1.57542003E9,,,,0,,6,0.38,1.57542003E9
Fix,gps,37.426537,-122.175789,1.253906,0.000000,3.216000,1581800801000
Raw,847269,869166000000,,,-1265835149279747574,0.11765861511230469,23.185013560578227,0.362407221117652,9.69569209745017,0,6,0.0,207,400379641060,80,16.6,-5.59387731552124,1.4550000429153442,16,0.0,0.0,1.59975002E9,,,,0,,3,1.47,1.59975002E9
Raw,847270,869166000000,,,-1265835149279747574,0.11765861511230469,23.185013560578227,0.362407221117652,9.69569209745017,0,18,0.0,207,400368447642,53,19.4,-667.9382934570312,1.2085000276565552,16,0.0,0.0,1.60031245E9,,,,0,,3,1.47,1.60031245E9
Raw,847270,869166000000,,,-1265835149279747574,0.11765861511230469,23.185013560578227,0.362407221117652,9.69569209745017,0,9,0.0,207,400368367373,19,27.6,-496.4533996582031,0.2533000111579895,16,0.0,0.0,1.60087501E9,,,,0,,3,1.47,1.60087501E9
Raw,847270,869166000000,,,-1265835149279747574,0.11765861511230469,23.185013560578227,0.362407221117652,9.69569209745017,0,16,0.0,207,400379481039,46,20.0,-8.686177253723145,1.1449999809265137,16,0.0,0.0,1.60143744E9,,,,0,,3,1.47,1.60143744E9
Raw,847270,869166000000,,,-1265835149279747574,0.11765861511230469,23.185013560578227,0.362407221117652,9.69569209745017,0,15,0.0,207,400373852134,10,34.3,473.0252685546875,0.24160000681877136,16,0.0,0.0,1.602E9,,,,0,,3,1.47,1.602E9
Raw,847270,869166000000,,,-1265835149279747574,0.11765861511230469,23.185013560578227,0.362407221117652,9.69569209745017,0,5,0.0,207,400374346954,24,25.4,741.5637817382812,0.6028000116348267,16,0.0,0.0,1.60256256E9,,,,0,,3,1.47,1.60256256E9
Raw,847271,869166000000,,,-1265835149279747574,0.11765861511230469,23.185013560578227,0.362407221117652,9.69569209745017,0,17,0.0,207,400370858229,19,27.4,-233.25439453125,0.2563000023365021,16,0.0,0.0,1.60424998E9,,,,0,,3,1.47,1.60424998E9
Raw,847271,869166000000,,,-1265835149279747574,0.11765861511230469,23.185013560578227,0.362407221117652,9.69569209745017,0,7,0.0,207,400370270320,6,38.6,-652.793701171875,0.23510000109672546,16,0.0,0.0,1.60481254E9,,,,0,,3,1.47,1.60481254E9
Raw,847271,869166000000,,,-1265835149279747574,0.11765861511230469,23.185013560578227,0.362407221117652,9.69569209745017,0,4,0.0,15,594418364749267,19,27.9,672.3286743164062,0.047300003468990326,16,0.0,0.0,1.57542003E9,,,,0,,1,0.36,1.57542003E9
Raw,847271,869166000000,,,-1265835149279747574,0.11765861511230469,23.185013560578227,0.362407221117652,9.69569209745017,0,5,0.0,15,594418367396752,9,35.7,38.81157684326172,0.03210000321269035,16,0.0,0.0,1.57542003E9,,,,0,,1,0.36,1.57542003E9
Raw,847272,869166000000,,,-1265835149279747574,0.11765861511230469,23.185013560578227,0.362407221117652,9.69569209745017,0,7,0.0,15,594418376272987,14,30.6,0.641471803188324,0.049800001084804535,16,0.0,0.0,1.57542003E9,,,,0,,1,0.36,1.57542003E9
Raw,847272,869166000000,,,-1265835149279747574,0.11765861511230469,23.185013560578227,0.362407221117652,9.69569209745017,0,8,0.0,15,594418371755417,11,33.9,114.6214599609375,0.039400000125169754,16,0.0,0.0,1.57542003E9,,,,0,,1,0.36,1.57542003E9
Raw,847273,869166000000,,,-1265835149279747574,0.11765861511230469,23.185013560578227,0.362407221117652,9.69569209745017,0,9,0.0,15,594418373431217,12,32.3,513.4585571289062,0.04340000078082085,16,0.0,0.0,1.57542003E9,,,,0,,1,0.36,1.57542003E9
Raw,847273,869166000000,,,-1265835149279747574,0.11765861511230469,23.185013560578227,0.362407221117652,9.69569209745017,0,11,0.0,15,594418363889073,24,25.2,-436.4654846191406,0.3862999975681305,16,0.0,0.0,1.57542003E9,,,,0,,1,0.36,1.57542003E9
Raw,847273,869166000000,,,-1265835149279747574,0.11765861511230469,23.185013560578227,0.362407221117652,9.69569209745017,0,13,0.0,15,594418362823304,19,27.0,-673.6412353515625,0.04430000111460686,16,0.0,0.0,1.57542003E9,,,,0,,1,0.36,1.57542003E9
Raw,847273,869166000000,,,-1265835149279747574,0.11765861511230469,23.185013560578227,0.362407221117652,9.69569209745017,0,23,0.0,15,594418367121928,10,34.4,652.7122192382812,0.032600000500679016,16,0.0,0.0,1.57542003E9,,,,0,,1,0.36,1.57542003E9
Raw,847273,869166000000,,,-1265835149279747574,0.11765861511230469,23.185013560578227,0.362407221117652,9.69569209745017,0,27,0.0,15,594418365665411,12,32.3,451.6180725097656,0.03140000253915787,16,0.0,0.0,1.57542003E9,,,,0,,1,0.36,1.57542003E9
Raw,847274,869166000000,,,-1265835149279747574,0.11765861511230469,23.185013560578227,0.362407221117652,9.69569209745017,0,28,0.0,15,594418373277067,12,32.6,-427.85723876953125,0.04340000078082085,16,0.0,0.0,1.57542003E9,,,,0,,1,0.36,1.57542003E9
Raw,847274,869166000000,,,-1265835149279747574,0.11765861511230469,23.185013560578227,0.362407221117652,9.69569209745017,0,30,0.0,15,594418374994731,13,31.5,-274.8914794921875,0.04620000347495079,16,0.0,0.0,1.57542003E9,,,,0,,1,0.36,1.57542003E9
Raw,847274,869166000000,,,-1265835149279747574,0.11765861511230469,23.185013560578227,0.362407221117652,9.69569209745017,0,3,0.0,7183,594418362303492,11,33.9,-296.4952392578125,0.04990000277757645,16,0.0,0.0,1.57542003E9,,,,0,,6,0.47,1.57542003E9
Raw,847274,869166000000,,,-1265835149279747574,0.11765861511230469,23.185013560578227,0.362407221117652,9.69569209745017,0,5,0.0,7183,594418366326211,53,19.1,233.3951873779297,0.8134999871253967,16,0.0,0.0,1.57542003E9,,,,0,,6,0.47,1.57542003E9
Raw,847274,869166000000,,,-1265835149279747574,0.11765861511230469,23.185013560578227,0.362407221117652,9.69569209745017,0,9,0.0,7183,594418363175257,14,30.8,566.4144897460938,0.04830000177025795,16,0.0,0.0,1.57542003E9,,,,0,,6,0.47,1.57542003E9
Raw,847275,869166000000,,,-1265835149279747574,0.11765861511230469,23.185013560578227,0.362407221117652,9.69569209745017,0,12,0.0,7183,594418358283282,40,21.6,-415.68701171875,0.6934999823570251,16,0.0,0.0,1.57542003E9,,,,0,,6,0.47,1.57542003E9
Raw,847275,869166000000,,,-1265835149279747574,0.11765861511230469,23.185013560578227,0.362407221117652,9.69569209745017,0,24,0.0,7183,594418371922854,13,31.3,227.52474975585938,0.047700002789497375,16,0.0,0.0,1.57542003E9,,,,0,,6,0.47,1.57542003E9
Raw,847275,869166000000,,,-1265835149279747574,0.11765861511230469,23.185013560578227,0.362407221117652,9.69569209745017,0,25,0.0,7183,594418364523109,17,28.5,-204.3114776611328,0.05730000138282776,16,0.0,0.0,1.57542003E9,,,,0,,6,0.47,1.57542003E9
Raw,847275,869166000000,,,-1265835149279747574,0.11765861511230469,23.185013560578227,0.362407221117652,9.69569209745017,0,31,0.0,7183,594418353719118,40,21.6,451.9665222167969,0.6919999718666077,16,0.0,0.0,1.57542003E9,,,,0,,6,0.47,1.57542003E9
Fix,gps,37.426537,-122.175789,1.255890,0.000000,3.216000,1581800802000
Raw,848269,870166000000,,,-1265835149279747588,0.8556251525878906,22.640269889961928,-5.325436402732655,9.535740858315325,0,6,0.0,207,401379641079,90,16.6,-5.59387731552124,2.955000162124634,16,0.0,0.0,1.59975002E9,,,,0,,3,1.5,1.59975002E9
Raw,848269,870166000000,,,-1265835149279747588,0.8556251525878906,22.640269889961928,-5.325436402732655,9.535740858315325,0,18,0.0,207,401368449870,62,19.4,-667.9382934570312,2.7085001468658447,16,0.0,0.0,1.60031245E9,,,,0,,3,1.5,1.60031245E9
Raw,848269,870166000000,,,-1265835149279747588,0.8556251525878906,22.640269889961928,-5.325436402732655,9.535740858315325,0,9,0.0,207,401368369051,19,27.6,-493.45001220703125,0.2533000111579895,16,0.0,0.0,1.60087501E9,,,,0,,3,1.5,1.60087501E9
Raw,848269,870166000000,,,-1265835149279747588,0.8556251525878906,22.640269889961928,-5.325436402732655,9.535740858315325,0,16,0.0,207,401379480968,53,19.8,-5.026376247406006,1.225000023841858,16,0.0,0.0,1.60143744E9,,,,0,,3,1.5,1.60143744E9
Raw,848270,870166000000,,,-1265835149279747588,0.8556251525878906,22.640269889961928,-5.325436402732655,9.535740858315325,0,15,0.0,207,401373850522,10,34.2,475.9329528808594,0.24160000681877136,16,0.0,0.0,1.602E9,,,,0,,3,1.5,1.602E9
Raw,848270,870166000000,,,-1265835149279747588,0.8556251525878906,22.640269889961928,-5.325436402732655,9.535740858315325,0,5,0.0,207,401374344461,24,25.6,744.298095703125,0.6028000116348267,16,0.0,0.0,1.60256256E9,,,,0,,3,1.5,1.60256256E9
Raw,848270,870166000000,,,-1265835149279747588,0.8556251525878906,22.640269889961928,-5.325436402732655,9.535740858315325,0,17,0.0,207,401370859054,17,28.6,-229.8829345703125,0.7114999890327454,16,0.0,0.0,1.60424998E9,,,,0,,3,1.5,1.60424998E9
Raw,848270,870166000000,,,-1265835149279747588,0.8556251525878906,22.640269889961928,-5.325436402732655,9.535740858315325,0,7,0.0,207,401370272475,7,37.3,-649.759521484375,0.23559999465942383,16,0.0,0.0,1.60481254E9,,,,0,,3,1.5,1.60481254E9
Raw,848270,870166000000,,,-1265835149279747588,0.8556251525878906,22.640269889961928,-5.325436402732655,9.535740858315325,0,4,0.0,15,594419364747011,19,27.1,675.3297729492188,0.047300003468990326,16,0.0,0.0,1.57542003E9,,,,0,,1,0.31,1.57542003E9
Raw,848271,870166000000,,,-1265835149279747588,0.8556251525878906,22.640269889961928,-5.325436402732655,9.535740858315325,0,5,0.0,15,594419367396615,8,36.2,41.8464241027832,0.031700000166893005,16,0.0,0.0,1.57542003E9,,,,0,,1,0.31,1.57542003E9
Raw,848271,870166000000,,,-1265835149279747588,0.8556251525878906,22.640269889961928,-5.325436402732655,9.535740858315325,0,7,0.0,15,594419376273022,13,31.2,3.67982816696167,0.04920000210404396,16,0.0,0.0,1.57542003E9,,,,0,,1,0.31,1.57542003E9
Raw,848271,870166000000,,,-1265835149279747588,0.8556251525878906,22.640269889961928,-5.325436402732655,9.535740858315325,0,8,0.0,15,594419371755013,10,34.4,117.6988296508789,0.038600001484155655,16,0.0,0.0,1.57542003E9,,,,0,,1,0.31,1.57542003E9
Raw,848271,870166000000,,,-1265835149279747588,0.8556251525878906,22.640269889961928,-5.325436402732655,9.535740858315325,0,9,0.0,15,594419373429485,11,33.4,516.4674072265625,0.04240000247955322,16,0.0,0.0,1.57542003E9,,,,0,,1,0.31,1.57542003E9
Raw,848271,870166000000,,,-1265835149279747588,0.8556251525878906,22.640269889961928,-5.325436402732655,9.535740858315325,0,11,0.0,15,594419363890591,27,24.4,-433.4128723144531,0.6710000038146973,16,0.0,0.0,1.57542003E9,,,,0,,1,0.31,1.57542003E9
Raw,848272,870166000000,,,-1265835149279747588,0.8556251525878906,22.640269889961928,-5.325436402732655,9.535740858315325,0,13,0.0,15,594419362825538,19,27.1,-670.7451171875,0.04430000111460686,16,0.0,0.0,1.57542003E9,,,,0,,1,0.31,1.57542003E9
Raw,848272,870166000000,,,-1265835149279747588,0.8556251525878906,22.640269889961928,-5.325436402732655,9.535740858315325,0,23,0.0,15,594419367119750,10,34.8,655.659912109375,0.032600000500679016,16,0.0,0.0,1.57542003E9,,,,0,,1,0.31,1.57542003E9
Raw,848272,870166000000,,,-1265835149279747588,0.8556251525878906,22.640269889961928,-5.325436402732655,9.535740858315325,0,27,0.0,15,594419365663884,13,31.0,454.6527404785156,0.03270000219345093,16,0.0,0.0,1.57542003E9,,,,0,,1,0.31,1.57542003E9
Raw,848272,870166000000,,,-1265835149279747588,0.8556251525878906,22.640269889961928,-5.325436402732655,9.535740858315325,0,28,0.0,15,594419373278506,12,32.3,-424.8688049316406,0.04340000078082085,16,0.0,0.0,1.57542003E9,,,,0,,1,0.31,1.57542003E9
Raw,848272,870166000000,,,-1265835149279747588,0.8556251525878906,22.640269889961928,-5.325436402732655,9.535740858315325,0,30,0.0,15,594419374995643,13,31.4,-271.82330322265625,0.04620000347495079,16,0.0,0.0,1.57542003E9,,,,0,,1,0.31,1.57542003E9
Raw,848273,870166000000,,,-1265835149279747588,0.8556251525878906,22.640269889961928,-5.325436402732655,9.535740858315325,0,3,0.0,7183,594419362304473,10,34.0,-293.34375,0.04910000041127205,16,0.0,0.0,1.57542003E9,,,,0,,6,0.44,1.57542003E9
Raw,848273,870166000000,,,-1265835149279747588,0.8556251525878906,22.640269889961928,-5.325436402732655,9.535740858315325,0,5,0.0,7183,594419366325426,40,21.6,234.10877990722656,0.6934999823570251,16,0.0,0.0,1.57542003E9,,,,0,,6,0.44,1.57542003E9
Raw,848274,870166000000,,,-1265835149279747588,0.8556251525878906,22.640269889961928,-5.325436402732655,9.535740858315325,0,9,0.0,7183,594419363173351,13,31.8,569.4931640625,0.047700002789497375,16,0.0,0.0,1.57542003E9,,,,0,,6,0.44,1.57542003E9
Raw,848274,870166000000,,,-1265835149279747588,0.8556251525878906,22.640269889961928,-5.325436402732655,9.535740858315325,0,12,0.0,7183,594419358284638,46,20.9,-412.8801574707031,0.7534999847412109,16,0.0,0.0,1.57542003E9,,,,0,,6,0.44,1.57542003E9
Raw,848274,870166000000,,,-1265835149279747588,0.8556251525878906,22.640269889961928,-5.325436402732655,9.535740858315325,0,24,0.0,7183,594419371922098,14,30.2,230.63824462890625,0.04830000177025795,16,0.0,0.0,1.57542003E9,,,,0,,6,0.44,1.57542003E9
Raw,848274,870166000000,,,-1265835149279747588,0.8556251525878906,22.640269889961928,-5.325436402732655,9.535740858315325,0,25,0.0,7183,594419364523758,19,27.8,-201.24429321289062,0.06530000269412994,16,0.0,0.0,1.57542003E9,,,,0,,6,0.44,1.57542003E9
Raw,848274,870166000000,,,-1265835149279747588,0.8556251525878906,22.640269889961928,-5.325436402732655,9.535740858315325,0,31,0.0,7183,594419353717610,47,21.6,451.9665222167969,2.192000150680542,16,0.0,0.0,1.57542003E9,,,,0,,6,0.44,1.57542003E9
Fix,gps,37.426537,-122.175789,1.256592,0.000000,3.216000,1581800803000
Raw,849267,871166000000,,,-1265835149279747576,0.9851703643798828,21.4619176404085,4.354928684503887,9.534209151392433,0,6,0.0,207,402379640978,96,15.7,-1.9583253860473633,2.305000066757202,16,0.0,0.0,1.59975002E9,,,,0,,3,1.45,1.59975002E9
Raw,849268,871166000000,,,-1265835149279747576,0.9851703643798828,21.4619176404085,4.354928684503887,9.534209151392433,0,18,0.0,207,402368452098,81,19.4,-667.9382934570312,4.208500385284424,16,0.0,0.0,1.60031245E9,,,,0,,3,1.45,1.60031245E9
Raw,849268,871166000000,,,-1265835149279747576,0.9851703643798828,21.4619176404085,4.354928684503887,9.534209151392433,0,9,0.0,207,402368370624,19,27.2,-493.8091735839844,0.2533000111579895,16,0.0,0.0,1.60087501E9,,,,0,,3,1.45,1.60087501E9
Raw,849268,871166000000,,,-1265835149279747576,0.9851703643798828,21.4619176404085,4.354928684503887,9.534209151392433,0,16,0.0,207,402379481103,53,19.9,-5.831345081329346,1.225000023841858,16,0.0,0.0,1.60143744E9,,,,0,,3,1.45,1.60143744E9
Raw,849268,871166000000,,,-1265835149279747576,0.9851703643798828,21.4619176404085,4.354928684503887,9.534209151392433,0,15,0.0,207,402373848963,11,33.3,475.5536804199219,0.24240000545978546,16,0.0,0.0,1.602E9,,,,0,,3,1.45,1.602E9
Raw,849268,871166000000,,,-1265835149279747576,0.9851703643798828,21.4619176404085,4.354928684503887,9.534209151392433,0,5,0.0,207,402374341983,21,26.7,744.0537109375,0.33219999074935913,16,0.0,0.0,1.60256256E9,,,,0,,3,1.45,1.60256256E9
Raw,849269,871166000000,,,-1265835149279747576,0.9851703643798828,21.4619176404085,4.354928684503887,9.534209151392433,0,17,0.0,207,402370859803,19,27.4,-230.31988525390625,0.2563000023365021,16,0.0,0.0,1.60424998E9,,,,0,,3,1.45,1.60424998E9
Raw,849269,871166000000,,,-1265835149279747576,0.9851703643798828,21.4619176404085,4.354928684503887,9.534209151392433,0,7,0.0,207,402370274654,8,36.9,-650.0679931640625,0.2362000048160553,16,0.0,0.0,1.60481254E9,,,,0,,3,1.45,1.60481254E9
Raw,849269,871166000000,,,-1265835149279747576,0.9851703643798828,21.4619176404085,4.354928684503887,9.534209151392433,0,4,0.0,15,594420364744725,19,27.6,674.9038696289062,0.047300003468990326,16,0.0,0.0,1.57542003E9,,,,0,,1,0.24,1.57542003E9
Raw,849269,871166000000,,,-1265835149279747576,0.9851703643798828,21.4619176404085,4.354928684503887,9.534209151392433,0,5,0.0,15,594420367396456,8,36.2,41.555686950683594,0.031700000166893005,16,0.0,0.0,1.57542003E9,,,,0,,1,0.24,1.57542003E9
Raw,849269,871166000000,,,-1265835149279747576,0.9851703643798828,21.4619176404085,4.354928684503887,9.534209151392433,0,7,0.0,15,594420376273029,13,31.9,3.2996065616607666,0.04920000210404396,16,0.0,0.0,1.57542003E9,,,,0,,1,0.24,1.57542003E9
Raw,849270,871166000000,,,-1265835149279747576,0.9851703643798828,21.4619176404085,4.354928684503887,9.534209151392433,0,8,0.0,15,594420371754612,10,34.5,117.40814971923828,0.038600001484155655,16,0.0,0.0,1.57542003E9,,,,0,,1,0.24,1.57542003E9
Raw,849270,871166000000,,,-1265835149279747576,0.9851703643798828,21.4619176404085,4.354928684503887,9.534209151392433,0,9,0.0,15,594420373427754,12,32.6,516.0987548828125,0.04340000078082085,16,0.0,0.0,1.57542003E9,,,,0,,1,0.24,1.57542003E9
Raw,849270,871166000000,,,-1265835149279747576,0.9851703643798828,21.4619176404085,4.354928684503887,9.534209151392433,0,11,0.0,15,594420363892013,24,25.0,-433.7496643066406,0.3862999975681305,16,0.0,0.0,1.57542003E9,,,,0,,1,0.24,1.57542003E9
Raw,849270,871166000000,,,-1265835149279747576,0.9851703643798828,21.4619176404085,4.354928684503887,9.534209151392433,0,13,0.0,15,594420362827775,21,26.3,-671.0665283203125,0.11420000344514847,16,0.0,0.0,1.57542003E9,,,,0,,1,0.24,1.57542003E9
Raw,849270,871166000000,,,-1265835149279747576,0.9851703643798828,21.4619176404085,4.354928684503887,9.534209151392433,0,23,0.0,15,594420367117565,9,35.9,655.3185424804688,0.03210000321269035,16,0.0,0.0,1.57542003E9,,,,0,,1,0.24,1.57542003E9
Raw,849271,871166000000,,,-1265835149279747576,0.9851703643798828,21.4619176404085,4.354928684503887,9.534209151392433,0,27,0.0,15,594420365662378,13,31.4,454.32830810546875,0.03270000219345093,16,0.0,0.0,1.57542003E9,,,,0,,1,0.24,1.57542003E9
Raw,849271,871166000000,,,-1265835149279747576,0.9851703643798828,21.4619176404085,4.354928684503887,9.534209151392433,0,28,0.0,15,594420373279924,13,31.5,-425.1585693359375,0.04470000043511391,16,0.0,0.0,1.57542003E9,,,,0,,1,0.24,1.57542003E9
Raw,849271,871166000000,,,-1265835149279747576,0.9851703643798828,21.4619176404085,4.354928684503887,9.534209151392433,0,30,0.0,15,594420374996530,14,30.5,-272.2263488769531,0.046800002455711365,16,0.0,0.0,1.57542003E9,,,,0,,1,0.24,1.57542003E9
Raw,849271,871166000000,,,-1265835149279747576,0.9851703643798828,21.4619176404085,4.354928684503887,9.534209151392433,0,3,0.0,7183,594420362305440,10,34.3,-293.6496276855469,0.04910000041127205,16,0.0,0.0,1.57542003E9,,,,0,,6,0.41,1.57542003E9
Raw,849271,871166000000,,,-1265835149279747576,0.9851703643798828,21.4619176404085,4.354928684503887,9.534209151392433,0,5,0.0,7183,594420366324645,47,21.6,234.10877990722656,2.19350004196167,16,0.0,0.0,1.57542003E9,,,,0,,6,0.41,1.57542003E9
Raw,849271,871166000000,,,-1265835149279747576,0.9851703643798828,21.4619176404085,4.354928684503887,9.534209151392433,0,9,0.0,7183,594420363171456,16,29.0,569.1236572265625,0.04920000210404396,16,0.0,0.0,1.57542003E9,,,,0,,6,0.41,1.57542003E9
Raw,849272,871166000000,,,-1265835149279747576,0.9851703643798828,21.4619176404085,4.354928684503887,9.534209151392433,0,12,0.0,7183,594420358286018,46,20.1,-412.37591552734375,0.7534999847412109,16,0.0,0.0,1.57542003E9,,,,0,,6,0.41,1.57542003E9
Raw,849272,871166000000,,,-1265835149279747576,0.9851703643798828,21.4619176404085,4.354928684503887,9.534209151392433,0,24,0.0,7183,594420371921339,17,28.7,230.24029541015625,0.055800002068281174,16,0.0,0.0,1.57542003E9,,,,0,,6,0.41,1.57542003E9
Raw,849272,871166000000,,,-1265835149279747576,0.9851703643798828,21.4619176404085,4.354928684503887,9.534209151392433,0,25,0.0,7183,594420364524452,17,28.5,-201.57290649414062,0.05730000138282776,16,0.0,0.0,1.57542003E9,,,,0,,6,0.41,1.57542003E9
Raw,849272,871166000000,,,-1265835149279747576,0.9851703643798828,21.4619176404085,4.354928684503887,9.534209151392433,0,31,0.0,7183,594420353716095,73,17.5,453.4888610839844,1.6920000314712524,16,0.0,0.0,1.57542003E9,,,,0,,6,0.41,1.57542003E9
Fix,gps,37.426537,-122.175789,1.254669,0.000000,3.216000,1581800804000
Raw,850265,872166000000,,,-1265835149279747573,0.6673793792724609,22.08923251600936,3.0840115660879945,9.571310496858056,0,6,0.0,207,403379640896,80,16.6,-2.2300548553466797,1.4550000429153442,16,0.0,0.0,1.59975002E9,,,,0,,3,1.52,1.59975002E9
Raw,850266,872166000000,,,-1265835149279747573,0.6673793792724609,22.08923251600936,3.0840115660879945,9.571310496858056,0,18,0.0,207,403368454075,133,13.4,-664.6505737304688,3.308500051498413,16,0.0,0.0,1.60031245E9,,,,0,,3,1.52,1.60031245E9
Raw,850266,872166000000,,,-1265835149279747573,0.6673793792724609,22.08923251600936,3.0840115660879945,9.571310496858056,0,9,0.0,207,403368372287,21,26.7,-493.9770202636719,0.323199987411499,16,0.0,0.0,1.60087501E9,,,,0,,3,1.52,1.60087501E9
Raw,850266,872166000000,,,-1265835149279747573,0.6673793792724609,22.08923251600936,3.0840115660879945,9.571310496858056,0,16,0.0,207,403379480935,81,16.4,-4.520930767059326,1.4850000143051147,16,0.0,0.0,1.60143744E9,,,,0,,3,1.52,1.60143744E9
Raw,850266,872166000000,,,-1265835149279747573,0.6673793792724609,22.08923251600936,3.0840115660879945,9.571310496858056,0,15,0.0,207,403373847367,11,33.2,475.4690856933594,0.24240000545978546,16,0.0,0.0,1.602E9,,,,0,,3,1.52,1.602E9
Raw,850266,872166000000,,,-1265835149279747573,0.6673793792724609,22.08923251600936,3.0840115660879945,9.571310496858056,0,5,0.0,207,403374339391,21,26.1,743.9906616210938,0.33219999074935913,16,0.0,0.0,1.60256256E9,,,,0,,3,1.52,1.60256256E9
Raw,850267,872166000000,,,-1265835149279747573,0.6673793792724609,22.08923251600936,3.0840115660879945,9.571310496858056,0,17,0.0,207,403370860608,19,27.3,-230.32760620117188,0.2563000023365021,16,0.0,0.0,1.60424998E9,,,,0,,3,1.52,1.60424998E9
Raw,850267,872166000000,,,-1265835149279747573,0.6673793792724609,22.08923251600936,3.0840115660879945,9.571310496858056,0,7,0.0,207,403370276817,7,37.1,-650.1133422851562,0.23559999465942383,16,0.0,0.0,1.60481254E9,,,,0,,3,1.52,1.60481254E9
Raw,850267,872166000000,,,-1265835149279747573,0.6673793792724609,22.08923251600936,3.0840115660879945,9.571310496858056,0,4,0.0,15,594421364742486,19,27.9,674.8443603515625,0.047300003468990326,16,0.0,0.0,1.57542003E9,,,,0,,1,0.33,1.57542003E9
Raw,850267,872166000000,,,-1265835149279747573,0.6673793792724609,22.08923251600936,3.0840115660879945,9.571310496858056,0,5,0.0,15,594421367396324,8,36.4,41.553382873535156,0.031700000166893005,16,0.0,0.0,1.57542003E9,,,,0,,1,0.33,1.57542003E9
Raw,850267,872166000000,,,-1265835149279747573,0.6673793792724609,22.08923251600936,3.0840115660879945,9.571310496858056,0,7,0.0,15,594421376272981,12,32.4,3.2559163570404053,0.0479000024497509,16,0.0,0.0,1.57542003E9,,,,0,,1,0.33,1.57542003E9
Raw,850267,872166000000,,,-1265835149279747573,0.6673793792724609,22.08923251600936,3.0840115660879945,9.571310496858056,0,8,0.0,15,594421371754222,10,34.6,117.43480682373047,0.038600001484155655,16,0.0,0.0,1.57542003E9,,,,0,,1,0.33,1.57542003E9
Raw,850268,872166000000,,,-1265835149279747573,0.6673793792724609,22.08923251600936,3.0840115660879945,9.571310496858056,0,9,0.0,15,594421373426024,12,32.7,516.1085205078125,0.04340000078082085,16,0.0,0.0,1.57542003E9,,,,0,,1,0.33,1.57542003E9
Raw,850268,872166000000,,,-1265835149279747573,0.6673793792724609,22.08923251600936,3.0840115660879945,9.571310496858056,0,11,0.0,15,594421363893453,24,25.1,-433.9294128417969,0.3862999975681305,16,0.0,0.0,1.57542003E9,,,,0,,1,0.33,1.57542003E9
Raw,850268,872166000000,,,-1265835149279747573,0.6673793792724609,22.08923251600936,3.0840115660879945,9.571310496858056,0,13,0.0,15,594421362830025,21,26.5,-671.2272338867188,0.11420000344514847,16,0.0,0.0,1.57542003E9,,,,0,,1,0.33,1.57542003E9
Raw,850268,872166000000,,,-1265835149279747573,0.6673793792724609,22.08923251600936,3.0840115660879945,9.571310496858056,0,23,0.0,15,594421367115383,8,36.4,655.2062377929688,0.031700000166893005,16,0.0,0.0,1.57542003E9,,,,0,,1,0.33,1.57542003E9
Raw,850268,872166000000,,,-1265835149279747573,0.6673793792724609,22.08923251600936,3.0840115660879945,9.571310496858056,0,27,0.0,15,594421365660843,13,31.5,454.2877502441406,0.03270000219345093,16,0.0,0.0,1.57542003E9,,,,0,,1,0.33,1.57542003E9
Raw,850268,872166000000,,,-1265835149279747573,0.6673793792724609,22.08923251600936,3.0840115660879945,9.571310496858056,0,28,0.0,15,594421373281328,14,30.9,-425.2247619628906,0.04530000314116478,16,0.0,0.0,1.57542003E9,,,,0,,1,0.33,1.57542003E9
Raw,850269,872166000000,,,-1265835149279747573,0.6673793792724609,22.08923251600936,3.0840115660879945,9.571310496858056,0,30,0.0,15,594421374997456,14,30.1,-272.2928466796875,0.046800002455711365,16,0.0,0.0,1.57542003E9,,,,0,,1,0.33,1.57542003E9
Raw,850269,872166000000,,,-1265835149279747573,0.6673793792724609,22.08923251600936,3.0840115660879945,9.571310496858056,0,3,0.0,7183,594421362306428,10,34.4,-293.8900451660156,0.04910000041127205,16,0.0,0.0,1.57542003E9,,,,0,,6,0.47,1.57542003E9
Raw,850269,872166000000,,,-1265835149279747573,0.6673793792724609,22.08923251600936,3.0840115660879945,9.571310496858056,0,5,0.0,7183,594421366323864,65,21.6,234.10877990722656,3.69350004196167,16,0.0,0.0,1.57542003E9,,,,0,,6,0.47,1.57542003E9
Raw,850269,872166000000,,,-1265835149279747573,0.6673793792724609,22.08923251600936,3.0840115660879945,9.571310496858056,0,9,0.0,7183,594421363169561,16,29.6,568.8479614257812,0.04920000210404396,16,0.0,0.0,1.57542003E9,,,,0,,6,0.47,1.57542003E9
Raw,850269,872166000000,,,-1265835149279747573,0.6673793792724609,22.08923251600936,3.0840115660879945,9.571310496858056,0,12,0.0,7183,594421358287404,46,20.5,-413.5081481933594,0.7534999847412109,16,0.0,0.0,1.57542003E9,,,,0,,6,0.47,1.57542003E9
Raw,850270,872166000000,,,-1265835149279747573,0.6673793792724609,22.08923251600936,3.0840115660879945,9.571310496858056,0,24,0.0,7183,594421371920572,17,28.5,229.97373962402344,0.055800002068281174,16,0.0,0.0,1.57542003E9,,,,0,,6,0.47,1.57542003E9
Raw,850270,872166000000,,,-1265835149279747573,0.6673793792724609,22.08923251600936,3.0840115660879945,9.571310496858056,0,25,0.0,7183,594421364525113,17,28.5,-201.8302459716797,0.05730000138282776,16,0.0,0.0,1.57542003E9,,,,0,,6,0.47,1.57542003E9
Raw,850270,872166000000,,,-1265835149279747573,0.6673793792724609,22.08923251600936,3.0840115660879945,9.571310496858056,0,31,0.0,7183,594421353714582,86,17.5,453.4888610839844,3.192000150680542,16,0.0,0.0,1.57542003E9,,,,0,,6,0.47,1.57542003E9
Fix,gps,37.426537,-122.175789,1.254639,0.000000,3.216000,1581800805000
Raw,851265,873166000000,,,-1265835149279747569,0.8397045135498047,22.131402147351764,2.4879165228244706,9.57129300072498,0,6,0.0,207,404379640791,92,15.7,-2.192574977874756,1.5550000667572021,16,0.0,0.0,1.59975002E9,,,,0,,3,1.48,1.59975002E9
Raw,851265,873166000000,,,-1265835149279747569,0.8397045135498047,22.131402147351764,2.4879165228244706,9.57129300072498,0,18,0.0,207,404368456362,53,19.1,-665.5029907226562,1.2085000276565552,16,0.0,0.0,1.60031245E9,,,,0,,3,1.48,1.60031245E9
Raw,851265,873166000000,,,-1265835149279747569,0.8397045135498047,22.131402147351764,2.4879165228244706,9.57129300072498,0,9,0.0,207,404368373961,21,26.3,-494.5872802734375,0.323199987411499,16,0.0,0.0,1.60087501E9,,,,0,,3,1.48,1.60087501E9
Raw,851265,873166000000,,,-1265835149279747569,0.8397045135498047,22.131402147351764,2.4879165228244706,9.57129300072498,0,16,0.0,207,404379481281,61,18.2,-5.494381427764893,1.3049999475479126,16,0.0,0.0,1.60143744E9,,,,0,,3,1.48,1.60143744E9
Raw,851266,873166000000,,,-1265835149279747569,0.8397045135498047,22.131402147351764,2.4879165228244706,9.57129300072498,0,15,0.0,207,404373845760,12,32.4,474.847900390625,0.24340000748634338,16,0.0,0.0,1.602E9,,,,0,,3,1.48,1.602E9
Raw,851266,873166000000,,,-1265835149279747569,0.8397045135498047,22.131402147351764,2.4879165228244706,9.57129300072498,0,5,0.0,207,404374337010,24,25.7,743.5060424804688,0.6028000116348267,16,0.0,0.0,1.60256256E9,,,,0,,3,1.48,1.60256256E9
Raw,851266,873166000000,,,-1265835149279747569,0.8397045135498047,22.131402147351764,2.4879165228244706,9.57129300072498,0,17,0.0,207,404370861384,21,26.1,-230.79823303222656,0.326200008392334,16,0.0,0.0,1.60424998E9,,,,0,,3,1.48,1.60424998E9
Raw,851267,873166000000,,,-1265835149279747569,0.8397045135498047,22.131402147351764,2.4879165228244706,9.57129300072498,0,7,0.0,207,404370278958,8,36.6,-650.656494140625,0.2362000048160553,16,0.0,0.0,1.60481254E9,,,,0,,3,1.48,1.60481254E9
Raw,851267,873166000000,,,-1265835149279747569,0.8397045135498047,22.131402147351764,2.4879165228244706,9.57129300072498,0,4,0.0,15,594422364740239,19,27.2,674.19580078125,0.047300003468990326,16,0.0,0.0,1.57542003E9,,,,0,,1,0.28,1.57542003E9
Raw,851267,873166000000,,,-1265835149279747569,0.8397045135498047,22.131402147351764,2.4879165228244706,9.57129300072498,0,5,0.0,15,594422367396189,8,36.2,41.03361892700195,0.031700000166893005,16,0.0,0.0,1.57542003E9,,,,0,,1,0.28,1.57542003E9
Raw,851267,873166000000,,,-1265835149279747569,0.8397045135498047,22.131402147351764,2.4879165228244706,9.57129300072498,0,7,0.0,15,594422376272987,13,31.3,2.6970467567443848,0.04920000210404396,16,0.0,0.0,1.57542003E9,,,,0,,1,0.28,1.57542003E9
Raw,851267,873166000000,,,-1265835149279747569,0.8397045135498047,22.131402147351764,2.4879165228244706,9.57129300072498,0,8,0.0,15,594422371753823,10,34.4,116.92686462402344,0.038600001484155655,16,0.0,0.0,1.57542003E9,,,,0,,1,0.28,1.57542003E9
Raw,851268,873166000000,,,-1265835149279747569,0.8397045135498047,22.131402147351764,2.4879165228244706,9.57129300072498,0,9,0.0,15,594422373424290,12,32.7,515.5833129882812,0.04340000078082085,16,0.0,0.0,1.57542003E9,,,,0,,1,0.28,1.57542003E9
Raw,851268,873166000000,,,-1265835149279747569,0.8397045135498047,22.131402147351764,2.4879165228244706,9.57129300072498,0,11,0.0,15,594422363894888,24,25.7,-434.4122009277344,0.3862999975681305,16,0.0,0.0,1.57542003E9,,,,0,,1,0.28,1.57542003E9
Raw,851268,873166000000,,,-1265835149279747569,0.8397045135498047,22.131402147351764,2.4879165228244706,9.57129300072498,0,13,0.0,15,594422362832239,24,25.6,-671.9256591796875,0.384799987077713,16,0.0,0.0,1.57542003E9,,,,0,,1,0.28,1.57542003E9
Raw,851268,873166000000,,,-1265835149279747569,0.8397045135498047,22.131402147351764,2.4879165228244706,9.57129300072498,0,23,0.0,15,594422367113187,8,36.4,654.6468505859375,0.031700000166893005,16,0.0,0.0,1.57542003E9,,,,0,,1,0.28,1.57542003E9
Raw,851268,873166000000,,,-1265835149279747569,0.8397045135498047,22.131402147351764,2.4879165228244706,9.57129300072498,0,27,0.0,15,594422365659336,13,31.4,453.7961730957031,0.03270000219345093,16,0.0,0.0,1.57542003E9,,,,0,,1,0.28,1.57542003E9
Raw,851269,873166000000,,,-1265835149279747569,0.8397045135498047,22.131402147351764,2.4879165228244706,9.57129300072498,0,28,0.0,15,594422373282739,14,30.3,-425.7340393066406,0.04530000314116478,16,0.0,0.0,1.57542003E9,,,,0,,1,0.28,1.57542003E9
Raw,851269,873166000000,,,-1265835149279747569,0.8397045135498047,22.131402147351764,2.4879165228244706,9.57129300072498,0,30,0.0,15,594422374998361,16,29.7,-272.88812255859375,0.047700002789497375,16,0.0,0.0,1.57542003E9,,,,0,,1,0.28,1.57542003E9
Raw,851269,873166000000,,,-1265835149279747569,0.8397045135498047,22.131402147351764,2.4879165228244706,9.57129300072498,0,3,0.0,7183,594422362307412,11,33.8,-294.26287841796875,0.04990000277757645,16,0.0,0.0,1.57542003E9,,,,0,,6,0.38,1.57542003E9
Raw,851269,873166000000,,,-1265835149279747569,0.8397045135498047,22.131402147351764,2.4879165228244706,9.57129300072498,0,5,0.0,7183,594422366323083,92,21.6,234.10877990722656,5.19350004196167,16,0.0,0.0,1.57542003E9,,,,0,,6,0.38,1.57542003E9
Raw,851269,873166000000,,,-1265835149279747569,0.8397045135498047,22.131402147351764,2.4879165228244706,9.57129300072498,0,9,0.0,7183,594422363167668,14,30.2,568.4400024414062,0.04830000177025795,16,0.0,0.0,1.57542003E9,,,,0,,6,0.38,1.57542003E9
Raw,851270,873166000000,,,-1265835149279747569,0.8397045135498047,22.131402147351764,2.4879165228244706,9.57129300072498,0,12,0.0,7183,594422358288768,40,21.2,-413.4510498046875,0.6934999823570251,16,0.0,0.0,1.57542003E9,,,,0,,6,0.38,1.57542003E9
Raw,851270,873166000000,,,-1265835149279747569,0.8397045135498047,22.131402147351764,2.4879165228244706,9.57129300072498,0,24,0.0,7183,594422371919802,17,28.2,229.56622314453125,0.055800002068281174,16,0.0,0.0,1.57542003E9,,,,0,,6,0.38,1.57542003E9
Raw,851270,873166000000,,,-1265835149279747569,0.8397045135498047,22.131402147351764,2.4879165228244706,9.57129300072498,0,25,0.0,7183,594422364525796,16,29.0,-202.2255859375,0.050700001418590546,16,0.0,0.0,1.57542003E9,,,,0,,6,0.38,1.57542003E9
Raw,851270,873166000000,,,-1265835149279747569,0.8397045135498047,22.131402147351764,2.4879165228244706,9.57129300072498,0,31,0.0,7183,594422353713070,109,17.5,453.4888610839844,4.692000389099121,16,0.0,0.0,1.57542003E9,,,,0,,6,0.38,1.57542003E9
Fix,gps,37.426537,-122.175789,1.253265,0.000000,3.216000,1581800806000
Raw,852268,874166000000,,,-1265835149279747563,0.20412254333496094,21.76564885303378,0.5289059655641966,9.556634422322718,0,6,0.0,207,405379641087,61,18.0,-1.9676954746246338,1.274999976158142,16,0.0,0.0,1.59975002E9,,,,0,,3,1.46,1.59975002E9
Raw,852269,874166000000,,,-1265835149279747563,0.20412254333496094,21.76564885303378,0.5289059655641966,9.556634422322718,0,18,0.0,207,405368458539,53,19.9,-665.95263671875,1.2085000276565552,16,0.0,0.0,1.60031245E9,,,,0,,3,1.46,1.60031245E9
Raw,852269,874166000000,,,-1265835149279747563,0.20412254333496094,21.76564885303378,0.5289059655641966,9.556634422322718,0,9,0.0,207,405368375596,21,26.7,-494.033935546875,0.323199987411499,16,0.0,0.0,1.60087501E9,,,,0,,3,1.46,1.60087501E9
Raw,852269,874166000000,,,-1265835149279747563,0.20412254333496094,21.76564885303378,0.5289059655641966,9.556634422322718,0,16,0.0,207,405379481172,70,17.5,-4.99829626083374,1.3949999809265137,16,0.0,0.0,1.60143744E9,,,,0,,3,1.46,1.60143744E9
Raw,852269,874166000000,,,-1265835149279747563,0.20412254333496094,21.76564885303378,0.5289059655641966,9.556634422322718,0,15,0.0,207,405373844183,11,33.0,475.3421936035156,0.24240000545978546,16,0.0,0.0,1.602E9,,,,0,,3,1.46,1.602E9
Raw,852270,874166000000,,,-1265835149279747563,0.20412254333496094,21.76564885303378,0.5289059655641966,9.556634422322718,0,5,0.0,207,405374334442,21,26.1,744.0173950195312,0.33219999074935913,16,0.0,0.0,1.60256256E9,,,,0,,3,1.46,1.60256256E9
Raw,852270,874166000000,,,-1265835149279747563,0.20412254333496094,21.76564885303378,0.5289059655641966,9.556634422322718,0,17,0.0,207,405370862271,24,25.1,-230.15469360351562,0.5967999696731567,16,0.0,0.0,1.60424998E9,,,,0,,3,1.46,1.60424998E9
Raw,852270,874166000000,,,-1265835149279747563,0.20412254333496094,21.76564885303378,0.5289059655641966,9.556634422322718,0,7,0.0,207,405370281161,8,36.9,-650.0821533203125,0.2362000048160553,16,0.0,0.0,1.60481254E9,,,,0,,3,1.46,1.60481254E9
Raw,852270,874166000000,,,-1265835149279747563,0.20412254333496094,21.76564885303378,0.5289059655641966,9.556634422322718,0,4,0.0,15,594423364738000,19,27.0,674.6546020507812,0.047300003468990326,16,0.0,0.0,1.57542003E9,,,,0,,1,0.26,1.57542003E9
Raw,852270,874166000000,,,-1265835149279747563,0.20412254333496094,21.76564885303378,0.5289059655641966,9.556634422322718,0,5,0.0,15,594423367396056,8,36.9,41.61106491088867,0.031700000166893005,16,0.0,0.0,1.57542003E9,,,,0,,1,0.26,1.57542003E9
Raw,852271,874166000000,,,-1265835149279747563,0.20412254333496094,21.76564885303378,0.5289059655641966,9.556634422322718,0,7,0.0,15,594423376272998,13,31.6,3.185885429382324,0.04920000210404396,16,0.0,0.0,1.57542003E9,,,,0,,1,0.26,1.57542003E9
Raw,852271,874166000000,,,-1265835149279747563,0.20412254333496094,21.76564885303378,0.5289059655641966,9.556634422322718,0,8,0.0,15,594423371753423,10,34.4,117.52007293701172,0.038600001484155655,16,0.0,0.0,1.57542003E9,,,,0,,1,0.26,1.57542003E9
Raw,852271,874166000000,,,-1265835149279747563,0.20412254333496094,21.76564885303378,0.5289059655641966,9.556634422322718,0,9,0.0,15,594423373422579,11,33.0,516.0559692382812,0.04240000247955322,16,0.0,0.0,1.57542003E9,,,,0,,1,0.26,1.57542003E9
Raw,852271,874166000000,,,-1265835149279747563,0.20412254333496094,21.76564885303378,0.5289059655641966,9.556634422322718,0,11,0.0,15,594423363896340,21,26.3,-434.1192932128906,0.11569999903440475,16,0.0,0.0,1.57542003E9,,,,0,,1,0.26,1.57542003E9
Raw,852272,874166000000,,,-1265835149279747563,0.20412254333496094,21.76564885303378,0.5289059655641966,9.556634422322718,0,13,0.0,15,594423362834499,21,26.4,-671.32958984375,0.11420000344514847,16,0.0,0.0,1.57542003E9,,,,0,,1,0.26,1.57542003E9
Raw,852272,874166000000,,,-1265835149279747563,0.20412254333496094,21.76564885303378,0.5289059655641966,9.556634422322718,0,23,0.0,15,594423367111020,8,36.0,655.1380004882812,0.031700000166893005,16,0.0,0.0,1.57542003E9,,,,0,,1,0.26,1.57542003E9
Raw,852272,874166000000,,,-1265835149279747563,0.20412254333496094,21.76564885303378,0.5289059655641966,9.556634422322718,0,27,0.0,15,594423365657820,13,31.9,454.3385925292969,0.03270000219345093,16,0.0,0.0,1.57542003E9,,,,0,,1,0.26,1.57542003E9
Raw,852273,874166000000,,,-1265835149279747563,0.20412254333496094,21.76564885303378,0.5289059655641966,9.556634422322718,0,28,0.0,15,594423373284169,13,31.4,-425.2061462402344,0.04470000043511391,16,0.0,0.0,1.57542003E9,,,,0,,1,0.26,1.57542003E9
Raw,852273,874166000000,,,-1265835149279747563,0.20412254333496094,21.76564885303378,0.5289059655641966,9.556634422322718,0,30,0.0,15,594423374999265,16,29.7,-272.3782958984375,0.047700002789497375,16,0.0,0.0,1.57542003E9,,,,0,,1,0.26,1.57542003E9
Raw,852273,874166000000,,,-1265835149279747563,0.20412254333496094,21.76564885303378,0.5289059655641966,9.556634422322718,0,3,0.0,7183,594423362308390,10,34.3,-293.8417053222656,0.04910000041127205,16,0.0,0.0,1.57542003E9,,,,0,,6,0.38,1.57542003E9
Raw,852273,874166000000,,,-1265835149279747563,0.20412254333496094,21.76564885303378,0.5289059655641966,9.556634422322718,0,5,0.0,7183,594423366322303,130,21.6,234.10877990722656,6.69350004196167,16,0.0,0.0,1.57542003E9,,,,0,,6,0.38,1.57542003E9
Raw,852273,874166000000,,,-1265835149279747563,0.20412254333496094,21.76564885303378,0.5289059655641966,9.556634422322718,0,9,0.0,7183,594423363165764,14,30.2,568.7968139648438,0.04830000177025795,16,0.0,0.0,1.57542003E9,,,,0,,6,0.38,1.57542003E9
Raw,852274,874166000000,,,-1265835149279747563,0.20412254333496094,21.76564885303378,0.5289059655641966,9.556634422322718,0,12,0.0,7183,594423358290162,53,19.9,-413.39398193359375,0.8134999871253967,16,0.0,0.0,1.57542003E9,,,,0,,6,0.38,1.57542003E9
Raw,852274,874166000000,,,-1265835149279747563,0.20412254333496094,21.76564885303378,0.5289059655641966,9.556634422322718,0,24,0.0,7183,594423371919033,17,28.2,229.96836853027344,0.055800002068281174,16,0.0,0.0,1.57542003E9,,,,0,,6,0.38,1.57542003E9
Raw,852274,874166000000,,,-1265835149279747563,0.20412254333496094,21.76564885303378,0.5289059655641966,9.556634422322718,0,25,0.0,7183,594423364526475,17,28.8,-201.8235321044922,0.05730000138282776,16,0.0,0.0,1.57542003E9,,,,0,,6,0.38,1.57542003E9
Raw,852274,874166000000,,,-1265835149279747563,0.20412254333496094,21.76564885303378,0.5289059655641966,9.556634422322718,0,31,0.0,7183,594423353711487,101,15.4,454.8114013671875,2.6019999980926514,16,0.0,0.0,1.57542003E9,,,,0,,6,0.38,1.57542003E9
Fix,gps,37.426537,-122.175789,1.260681,0.000000,3.216000,1581800807000
Raw,853277,875166000000,,,-1265835149279747564,0.5186691284179688,21.23714511981234,1.9649787765409235,9.556966053572378,0,6,0.0,207,406379641033,46,20.0,-0.8901479244232178,1.1150000095367432,16,0.0,0.0,1.59975002E9,,,,0,,3,1.4,1.59975002E9
Raw,853277,875166000000,,,-1265835149279747564,0.5186691284179688,21.23714511981234,1.9649787765409235,9.556966053572378,0,18,0.0,207,406368460767,24,25.8,-664.6497802734375,0.5938000082969666,16,0.0,0.0,1.60031245E9,,,,0,,3,1.4,1.60031245E9
Raw,853277,875166000000,,,-1265835149279747564,0.5186691284179688,21.23714511981234,1.9649787765409235,9.556966053572378,0,9,0.0,207,406368377217,13,31.7,-493.5457458496094,0.23720000684261322,16,0.0,0.0,1.60087501E9,,,,0,,3,1.4,1.60087501E9
Raw,853277,875166000000,,,-1265835149279747564,0.5186691284179688,21.23714511981234,1.9649787765409235,9.556966053572378,0,16,0.0,207,406379481191,27,24.0,-5.045096397399902,0.8949999809265137,16,0.0,0.0,1.60143744E9,,,,0,,3,1.4,1.60143744E9
Raw,853278,875166000000,,,-1265835149279747564,0.5186691284179688,21.23714511981234,1.9649787765409235,9.556966053572378,0,15,0.0,207,406373842578,11,33.9,475.87353515625,0.24240000545978546,16,0.0,0.0,1.602E9,,,,0,,3,1.4,1.602E9
Raw,853278,875166000000,,,-1265835149279747564,0.5186691284179688,21.23714511981234,1.9649787765409235,9.556966053572378,0,5,0.0,207,406374332034,24,25.4,744.5989379882812,0.6028000116348267,16,0.0,0.0,1.60256256E9,,,,0,,3,1.4,1.60256256E9
Raw,853278,875166000000,,,-1265835149279747564,0.5186691284179688,21.23714511981234,1.9649787765409235,9.556966053572378,0,17,0.0,207,406370862924,13,31.1,-229.4505157470703,0.2401999980211258,16,0.0,0.0,1.60424998E9,,,,0,,3,1.4,1.60424998E9
Raw,853278,875166000000,,,-1265835149279747564,0.5186691284179688,21.23714511981234,1.9649787765409235,9.556966053572378,0,7,0.0,207,406370283288,9,35.9,-649.50830078125,0.23659999668598175,16,0.0,0.0,1.60481254E9,,,,0,,3,1.4,1.60481254E9
Raw,853278,875166000000,,,-1265835149279747564,0.5186691284179688,21.23714511981234,1.9649787765409235,9.556966053572378,0,4,0.0,15,594424364735746,9,35.0,675.26708984375,0.0276000015437603,16,0.0,0.0,1.57542003E9,,,,0,,1,0.19,1.57542003E9
Raw,853279,875166000000,,,-1265835149279747564,0.5186691284179688,21.23714511981234,1.9649787765409235,9.556966053572378,0,5,0.0,15,594424367395887,10,34.9,42.15231704711914,0.032600000500679016,16,0.0,0.0,1.57542003E9,,,,0,,1,0.19,1.57542003E9
Raw,853279,875166000000,,,-1265835149279747564,0.5186691284179688,21.23714511981234,1.9649787765409235,9.556966053572378,0,7,0.0,15,594424376272986,11,33.7,3.6635515689849854,0.04690000042319298,16,0.0,0.0,1.57542003E9,,,,0,,1,0.19,1.57542003E9
Raw,853279,875166000000,,,-1265835149279747564,0.5186691284179688,21.23714511981234,1.9649787765409235,9.556966053572378,0,8,0.0,15,594424371753049,13,31.7,118.15242767333984,0.04170000180602074,16,0.0,0.0,1.57542003E9,,,,0,,1,0.19,1.57542003E9
Raw,853279,875166000000,,,-1265835149279747564,0.5186691284179688,21.23714511981234,1.9649787765409235,9.556966053572378,0,9,0.0,15,594424373420882,13,31.6,516.5031127929688,0.04470000043511391,16,0.0,0.0,1.57542003E9,,,,0,,1,0.19,1.57542003E9
Raw,853279,875166000000,,,-1265835149279747564,0.5186691284179688,21.23714511981234,1.9649787765409235,9.556966053572378,0,11,0.0,15,594424363897717,13,31.5,-433.3617858886719,0.02970000170171261,16,0.0,0.0,1.57542003E9,,,,0,,1,0.19,1.57542003E9
Raw,853279,875166000000,,,-1265835149279747564,0.5186691284179688,21.23714511981234,1.9649787765409235,9.556966053572378,0,13,0.0,15,594424362836719,13,31.3,-670.7831420898438,0.028200000524520874,16,0.0,0.0,1.57542003E9,,,,0,,1,0.19,1.57542003E9
Raw,853280,875166000000,,,-1265835149279747564,0.5186691284179688,21.23714511981234,1.9649787765409235,9.556966053572378,0,23,0.0,15,594424367108813,9,35.9,655.65771484375,0.03210000321269035,16,0.0,0.0,1.57542003E9,,,,0,,1,0.19,1.57542003E9
Raw,853280,875166000000,,,-1265835149279747564,0.5186691284179688,21.23714511981234,1.9649787765409235,9.556966053572378,0,27,0.0,15,594424365656302,12,32.2,455.0074462890625,0.03140000253915787,16,0.0,0.0,1.57542003E9,,,,0,,1,0.19,1.57542003E9
Raw,853280,875166000000,,,-1265835149279747564,0.5186691284179688,21.23714511981234,1.9649787765409235,9.556966053572378,0,28,0.0,15,594424373285574,16,29.6,-424.724365234375,0.04620000347495079,16,0.0,0.0,1.57542003E9,,,,0,,1,0.19,1.57542003E9
Raw,853280,875166000000,,,-1265835149279747564,0.5186691284179688,21.23714511981234,1.9649787765409235,9.556966053572378,0,30,0.0,15,594424375000192,13,31.3,-272.0569763183594,0.047700002789497375,16,0.0,0.0,1.57542003E9,,,,0,,1,0.19,1.57542003E9
Raw,853280,875166000000,,,-1265835149279747564,0.5186691284179688,21.23714511981234,1.9649787765409235,9.556966053572378,0,3,0.0,7183,594424362309379,12,32.3,-293.23040771484375,0.05090000107884407,16,0.0,0.0,1.57542003E9,,,,0,,6,0.14,1.57542003E9
Raw,853281,875166000000,,,-1265835149279747564,0.5186691284179688,21.23714511981234,1.9649787765409235,9.556966053572378,0,5,0.0,7183,594424366321588,79,19.5,234.35617065429688,3.813500165939331,16,0.0,0.0,1.57542003E9,,,,0,,6,0.14,1.57542003E9
Raw,853281,875166000000,,,-1265835149279747564,0.5186691284179688,21.23714511981234,1.9649787765409235,9.556966053572378,0,9,0.0,7183,594424363163879,16,29.5,569.3534545898438,0.04920000210404396,16,0.0,0.0,1.57542003E9,,,,0,,6,0.14,1.57542003E9
Raw,853282,875166000000,,,-1265835149279747564,0.5186691284179688,21.23714511981234,1.9649787765409235,9.556966053572378,0,12,0.0,7183,594424358291582,19,27.4,-412.3594055175781,0.06830000132322311,16,0.0,0.0,1.57542003E9,,,,0,,6,0.14,1.57542003E9
Raw,853282,875166000000,,,-1265835149279747564,0.5186691284179688,21.23714511981234,1.9649787765409235,9.556966053572378,0,24,0.0,7183,594424371918252,10,34.1,230.56549072265625,0.044600002467632294,16,0.0,0.0,1.57542003E9,,,,0,,6,0.14,1.57542003E9
Raw,853282,875166000000,,,-1265835149279747564,0.5186691284179688,21.23714511981234,1.9649787765409235,9.556966053572378,0,25,0.0,7183,594424364527140,17,28.7,-201.29098510742188,0.05730000138282776,16,0.0,0.0,1.57542003E9,,,,0,,6,0.14,1.57542003E9
Raw,853282,875166000000,,,-1265835149279747564,0.5186691284179688,21.23714511981234,1.9649787765409235,9.556966053572378,0,31,0.0,7183,594424353709995,16,29.1,455.5139465332031,0.05220000073313713,16,0.0,0.0,1.57542003E9,,,,0,,6,0.14,1.57542003E9
Fix,gps,37.426535,-122.175791,1.568817,0.000000,3.216000,1581800808000
Raw,854273,876166000000,,,-1265835149279747558,0.8963661193847656,20.947554730810225,3.8785523235481314,9.431327117235147,0,6,0.0,207,407379640949,40,21.2,-1.4898265600204468,1.0449999570846558,16,0.0,0.0,1.59975002E9,,,,0,,3,1.03,1.59975002E9
Raw,854273,876166000000,,,-1265835149279747558,0.8963661193847656,20.947554730810225,3.8785523235481314,9.431327117235147,0,18,0.0,207,407368463022,21,26.4,-664.1174926757812,0.323199987411499,16,0.0,0.0,1.60031245E9,,,,0,,3,1.03,1.60031245E9
Raw,854274,876166000000,,,-1265835149279747558,0.8963661193847656,20.947554730810225,3.8785523235481314,9.431327117235147,0,9,0.0,207,407368378914,16,29.6,-492.9101867675781,0.2387000024318695,16,0.0,0.0,1.60087501E9,,,,0,,3,1.03,1.60087501E9
Raw,854274,876166000000,,,-1265835149279747558,0.8963661193847656,20.947554730810225,3.8785523235481314,9.431327117235147,0,16,0.0,207,407379481206,27,24.3,-4.230767250061035,0.8949999809265137,16,0.0,0.0,1.60143744E9,,,,0,,3,1.03,1.60143744E9
Raw,854274,876166000000,,,-1265835149279747558,0.8963661193847656,20.947554730810225,3.8785523235481314,9.431327117235147,0,15,0.0,207,407373840973,9,35.3,476.6401062011719,0.2410999983549118,16,0.0,0.0,1.602E9,,,,0,,3,1.03,1.602E9
